[{"Name":"Fatburger","Brand":"Fatburger","Status":"open","Address":"100 N. Hayford Rd.","State":"WA","Locality":"WA","Zip":"99001","Country":"US","PhoneNumbers":["5094812130"],"Website":"https:\/\/locations.fatburger.com\/ll\/US\/WA\/Airway-Heights\/100-N_-Hayford-Rd_","Emails":null,"Latitude":"47.65854","Longitude":"-117.56222","scrape_datetime":1665257682933,"scrape_domain":"fatburger.com","scrape_store_name":"Fatburger"},{"Name":"Fatburger","Brand":"Fatburger","Status":"open","Address":"101-8631 94th Street","State":"AB","Locality":"AB","Zip":"T8L 4P7","Country":"CA","PhoneNumbers":["7809989972"],"Website":"https:\/\/locations.fatburger.com\/ll\/CA\/AB\/Fort-Saskatchewan\/101~8631-94th-Street","Emails":null,"Latitude":"53.69409","Longitude":"-113.213226","scrape_datetime":1665257682933,"scrape_domain":"fatburger.com","scrape_store_name":"Fatburger"},{"Name":"Fatburger","Brand":"Fatburger","Status":"open","Address":"Majidi Mall 60 Street","State":"Iraq","Locality":"Iraq","Zip":"44001","Country":"IQ","PhoneNumbers":["7501950005"],"Website":"https:\/\/locations.fatburger.com\/ll\/IQ\/Iraq\/Erbil\/Majidi-Mall-60-Street","Emails":null,"Latitude":"36.196245","Longitude":"44.066531","scrape_datetime":1665257682933,"scrape_domain":"fatburger.com","scrape_store_name":"Fatburger"},{"Name":"Fatburger","Brand":"Fatburger","Status":"open","Address":"1025 North Vasco Road","State":"CA","Locality":"CA","Zip":"94551","Country":"US","PhoneNumbers":["9254556070"],"Website":"https:\/\/locations.fatburger.com\/ll\/US\/CA\/Livermore\/1025-North-Vasco-Road","Emails":null,"Latitude":"37.713055","Longitude":"-121.723479","scrape_datetime":1665257682933,"scrape_domain":"fatburger.com","scrape_store_name":"Fatburger"},{"Name":"Fatburger","Brand":"Fatburger","Status":"open","Address":"10 McKenney Ave #200","State":"AB","Locality":"AB","Zip":"T8N 4S8","Country":"CA","PhoneNumbers":["7805695425"],"Website":"https:\/\/locations.fatburger.com\/ll\/CA\/AB\/St_-Albert\/10-McKenney-Ave-#200","Emails":null,"Latitude":"53.642569","Longitude":"-113.62767","scrape_datetime":1665257682933,"scrape_domain":"fatburger.com","scrape_store_name":"Fatburger"},{"Name":"Fatburger","Brand":"Fatburger","Status":"open","Address":"Al Gharaffa","State":"Doha","Locality":"Doha","Zip":"5694","Country":"QA","PhoneNumbers":["40299999"],"Website":"https:\/\/locations.fatburger.com\/ll\/QA\/Doha\/Doha\/Al-Gharaffa","Emails":null,"Latitude":"25.335475","Longitude":"51.460944","scrape_datetime":1665257682933,"scrape_domain":"fatburger.com","scrape_store_name":"Fatburger"},{"Name":"Fatburger","Brand":"Fatburger","Status":"open","Address":"11009 Burbank Blvd.","State":"CA","Locality":"CA","Zip":"91601","Country":"US","PhoneNumbers":["8187606565"],"Website":"https:\/\/locations.fatburger.com\/ll\/US\/CA\/North-Hollywood\/11009-Burbank-Blvd_","Emails":null,"Latitude":"34.172359","Longitude":"-118.370528","scrape_datetime":1665257682933,"scrape_domain":"fatburger.com","scrape_store_name":"Fatburger"},{"Name":"Fatburger","Brand":"Fatburger","Status":"open","Address":"10664-108 A Street","State":"AB","Locality":"AB","Zip":"T8V 7X4","Country":"CA","PhoneNumbers":["7805333330"],"Website":"https:\/\/locations.fatburger.com\/ll\/CA\/AB\/Grande-Prairie\/10664~108-A-Street","Emails":null,"Latitude":"55.175874","Longitude":"-118.822688","scrape_datetime":1665257682933,"scrape_domain":"fatburger.com","scrape_store_name":"Fatburger"},{"Name":"Fatburger","Brand":"Fatburger","Status":"open","Address":"B106 Financial Street Center","State":"Beijing","Locality":"Beijing","Zip":"100000","Country":"CN","PhoneNumbers":["1066008050"],"Website":"https:\/\/locations.fatburger.com\/ll\/CN\/Beijing\/Beijing\/B106-Financial-Street-Center","Emails":null,"Latitude":"39.910078","Longitude":"116.357842","scrape_datetime":1665257682933,"scrape_domain":"fatburger.com","scrape_store_name":"Fatburger"},{"Name":"Fatburger","Brand":"Fatburger","Status":"open","Address":"11011 West Charleston Blvd","State":"NV","Locality":"NV","Zip":"89135","Country":"US","PhoneNumbers":["7022285744"],"Website":"https:\/\/locations.fatburger.com\/ll\/US\/NV\/Las-Vegas\/11011-West-Charleston-Blvd","Emails":null,"Latitude":"36.156964","Longitude":"-115.333575","scrape_datetime":1665257682933,"scrape_domain":"fatburger.com","scrape_store_name":"Fatburger"},{"Name":"Fatburger","Brand":"Fatburger","Status":"open","Address":"1101 Harvey Ave.","State":"BC","Locality":"BC","Zip":"V1Y 6E8","Country":"CA","PhoneNumbers":["2507623228"],"Website":"https:\/\/locations.fatburger.com\/ll\/CA\/BC\/Kelowna\/1101-Harvey-Ave_","Emails":null,"Latitude":"49.883117","Longitude":"-119.476234","scrape_datetime":1665257682933,"scrape_domain":"fatburger.com","scrape_store_name":"Fatburger"},{"Name":"Fatburger","Brand":"Fatburger","Status":"open","Address":"10 Jinnan","State":"Tokyo","Locality":"Tokyo","Zip":"150-0002","Country":"JP","PhoneNumbers":["334775111"],"Website":"https:\/\/locations.fatburger.com\/ll\/JP\/Tokyo\/Shibuya~ku\/10-Jinnan","Emails":null,"Latitude":"35.65962","Longitude":"139.700922","scrape_datetime":1665257682933,"scrape_domain":"fatburger.com","scrape_store_name":"Fatburger"},{"Name":"Fatburger","Brand":"Fatburger","Status":"open","Address":"11275 Venice Blvd West","State":"CA","Locality":"CA","Zip":"90066","Country":"US","PhoneNumbers":["3103907831"],"Website":"https:\/\/locations.fatburger.com\/ll\/US\/CA\/Los-Angeles\/11275-Venice-Blvd-West","Emails":null,"Latitude":"34.011855","Longitude":"-118.419579","scrape_datetime":1665257682933,"scrape_domain":"fatburger.com","scrape_store_name":"Fatburger"},{"Name":"Fatburger","Brand":"Fatburger","Status":"open","Address":"111 Dunsmuir Street","State":"BC","Locality":"BC","Zip":"V6B 6A3","Country":"CA","PhoneNumbers":["6046699640"],"Website":"https:\/\/locations.fatburger.com\/ll\/CA\/BC\/Vancouver\/111-Dunsmuir-Street","Emails":null,"Latitude":"49.280207","Longitude":"-123.110289","scrape_datetime":1665257682933,"scrape_domain":"fatburger.com","scrape_store_name":"Fatburger"},{"Name":"Fatburger","Brand":"Fatburger","Status":"open","Address":"The Grand Summit No.1, LB01, Liangmaqiao Diplomatic No.19 East Dongfang Rd","State":"Beijing","Locality":"Beijing","Zip":"100096","Country":"CN","PhoneNumbers":["1085321878"],"Website":"https:\/\/locations.fatburger.com\/ll\/CN\/Beijing\/Beijing\/The-Grand-Summit-No_1*-LB01*-Liangmaqiao-Diplomatic-No_19-East-Dongfang-Rd","Emails":null,"Latitude":"39.951877","Longitude":"116.464044","scrape_datetime":1665257682933,"scrape_domain":"fatburger.com","scrape_store_name":"Fatburger"},{"Name":"Fatburger","Brand":"Fatburger","Status":"open","Address":"10955 Kinross Ave.","State":"CA","Locality":"CA","Zip":"90024","Country":"US","PhoneNumbers":["3102084300"],"Website":"https:\/\/locations.fatburger.com\/ll\/US\/CA\/Los-Angeles\/10955-Kinross-Ave_","Emails":null,"Latitude":"34.060162","Longitude":"-118.446901","scrape_datetime":1665257682933,"scrape_domain":"fatburger.com","scrape_store_name":"Fatburger"},{"Name":"Fatburger","Brand":"Fatburger","Status":"open","Address":"114 - 1090 Lougheed Hwy","State":"BC","Locality":"BC","Zip":"V3K 6G9","Country":"CA","PhoneNumbers":["6045533040"],"Website":"https:\/\/locations.fatburger.com\/ll\/CA\/BC\/Coquitlam\/114-~-1090-Lougheed-Hwy","Emails":null,"Latitude":"49.23417","Longitude":"-122.862547","scrape_datetime":1665257682933,"scrape_domain":"fatburger.com","scrape_store_name":"Fatburger"},{"Name":"Fatburger","Brand":"Fatburger","Status":"open","Address":"Medina Centrale","State":"Doha","Locality":"Doha","Zip":"1111","Country":"QA","PhoneNumbers":["40299999"],"Website":"https:\/\/locations.fatburger.com\/ll\/QA\/Doha\/Doha\/Medina-Centrale","Emails":null,"Latitude":"25.368265","Longitude":"51.551673","scrape_datetime":1665257682933,"scrape_domain":"fatburger.com","scrape_store_name":"Fatburger"},{"Name":"Fatburger","Brand":"Fatburger","Status":"open","Address":"1200 Athens Ave.","State":"CA","Locality":"CA","Zip":"95648","Country":"US","PhoneNumbers":["9164087777"],"Website":"https:\/\/locations.fatburger.com\/ll\/US\/CA\/Lincoln\/1200-Athens-Ave_","Emails":null,"Latitude":"38.840493","Longitude":"-121.314512","scrape_datetime":1665257682933,"scrape_domain":"fatburger.com","scrape_store_name":"Fatburger"},{"Name":"Fatburger","Brand":"Fatburger","Status":"open","Address":"1209 Douglas St","State":"BC","Locality":"BC","Zip":"V8W 2E7","Country":"CA","PhoneNumbers":["2505904142"],"Website":"https:\/\/locations.fatburger.com\/ll\/CA\/BC\/Victoria\/1209-Douglas-St","Emails":null,"Latitude":"48.425705","Longitude":"-123.364851","scrape_datetime":1665257682933,"scrape_domain":"fatburger.com","scrape_store_name":"Fatburger"},{"Name":"Fatburger","Brand":"Fatburger","Status":"open","Address":"1301 W. Sunset Rd.","State":"NV","Locality":"NV","Zip":"89014","Country":"US","PhoneNumbers":["7024507820"],"Website":"https:\/\/locations.fatburger.com\/ll\/US\/NV\/Henderson\/1301-W_-Sunset-Rd_","Emails":null,"Latitude":"36.05917407958589","Longitude":"-115.04119708465578","scrape_datetime":1665257682933,"scrape_domain":"fatburger.com","scrape_store_name":"Fatburger"},{"Name":"Fatburger","Brand":"Fatburger","Status":"open","Address":"1505 Mayor Magrath Dr S","State":"AB","Locality":"AB","Zip":"T1K 2R4","Country":"CA","PhoneNumbers":["4039424048"],"Website":"https:\/\/locations.fatburger.com\/ll\/CA\/AB\/Lethbridge\/1505-Mayor-Magrath-Dr-S","Emails":null,"Latitude":"49.677124","Longitude":"-112.80137","scrape_datetime":1665257682933,"scrape_domain":"fatburger.com","scrape_store_name":"Fatburger"},{"Name":"Fatburger","Brand":"Fatburger","Status":"open","Address":"Sulaimani - Kirkuk Rd","State":"Iraq","Locality":"Iraq","Zip":"46001","Country":"IQ","PhoneNumbers":["7504557788"],"Website":"https:\/\/locations.fatburger.com\/ll\/IQ\/Iraq\/Sulaymaniyah\/Sulaimani-~-Kirkuk-Rd","Emails":null,"Latitude":"35.565627","Longitude":"45.371665","scrape_datetime":1665257682933,"scrape_domain":"fatburger.com","scrape_store_name":"Fatburger"},{"Name":"Fatburger","Brand":"Fatburger","Status":"open","Address":"12885 Casino Drive","State":"WA","Locality":"WA","Zip":"98221","Country":"US","PhoneNumbers":["3605883646"],"Website":"https:\/\/locations.fatburger.com\/ll\/US\/WA\/Anacortes\/12885-Casino-Drive","Emails":null,"Latitude":"48.458098","Longitude":"-122.519763","scrape_datetime":1665257682933,"scrape_domain":"fatburger.com","scrape_store_name":"Fatburger"},{"Name":"Fatburger","Brand":"Fatburger","Status":"open","Address":"15987 97th Street NW","State":"AB","Locality":"AB","Zip":"T5X 0C7","Country":"CA","PhoneNumbers":["7804786011"],"Website":"https:\/\/locations.fatburger.com\/ll\/CA\/AB\/Edmonton\/15987-97th-Street-NW","Emails":null,"Latitude":"53.620038","Longitude":"-113.4909","scrape_datetime":1665257682933,"scrape_domain":"fatburger.com","scrape_store_name":"Fatburger"},{"Name":"Fatburger","Brand":"Fatburger","Status":"open","Address":"Sealine Beach, Mesaieed","State":"Al Wakrah","Locality":"Al Wakrah","Zip":"1111","Country":"QA","PhoneNumbers":["50210600"],"Website":"https:\/\/locations.fatburger.com\/ll\/QA\/Al-Wakrah\/Al-Wakrah\/Sealine-Beach*-Mesaieed","Emails":null,"Latitude":"24.933277","Longitude":"51.529827","scrape_datetime":1665257682933,"scrape_domain":"fatburger.com","scrape_store_name":"Fatburger"},{"Name":"Fatburger","Brand":"Fatburger","Status":"open","Address":"14221 E. Cedar Ave.","State":"CO","Locality":"CO","Zip":"80012","Country":"US","PhoneNumbers":["3033636996"],"Website":"https:\/\/locations.fatburger.com\/ll\/US\/CO\/Aurora\/14221-E_-Cedar-Ave_","Emails":null,"Latitude":"39.71311","Longitude":"-104.82257","scrape_datetime":1665257682933,"scrape_domain":"fatburger.com","scrape_store_name":"Fatburger"},{"Name":"Fatburger","Brand":"Fatburger","Status":"open","Address":"16070 24 Avenue","State":"BC","Locality":"BC","Zip":"V3S 0M6","Country":"CA","PhoneNumbers":["6045356179"],"Website":"https:\/\/locations.fatburger.com\/ll\/CA\/BC\/Surrey\/16070-24-Avenue","Emails":null,"Latitude":"49.045204","Longitude":"-122.777356","scrape_datetime":1665257682933,"scrape_domain":"fatburger.com","scrape_store_name":"Fatburger"},{"Name":"Fatburger","Brand":"Fatburger","Status":"open","Address":"Al Waab st., Aspire - Sports City","State":"Doha","Locality":"Doha","Zip":"1111","Country":"QA","PhoneNumbers":[""],"Website":"https:\/\/locations.fatburger.com\/ll\/QA\/Doha\/Doha\/Al-Waab-st_*-Aspire-~-Sports-City","Emails":null,"Latitude":"25.263944","Longitude":"51.442933","scrape_datetime":1665257682933,"scrape_domain":"fatburger.com","scrape_store_name":"Fatburger"},{"Name":"Fatburger","Brand":"Fatburger","Status":"open","Address":"16952 107th Avenue NW","State":"AB","Locality":"AB","Zip":"T5P 4C3","Country":"CA","PhoneNumbers":["7804873228"],"Website":"https:\/\/locations.fatburger.com\/ll\/CA\/AB\/Edmonton\/16952-107th-Avenue-NW","Emails":null,"Latitude":"53.553653","Longitude":"-113.61367","scrape_datetime":1665257682933,"scrape_domain":"fatburger.com","scrape_store_name":"Fatburger"},{"Name":"Fatburger","Brand":"Fatburger","Status":"open","Address":"Majidi Land - Kasnazan rd","State":"Erbil","Locality":"Erbil","Zip":"44001","Country":"IQ","PhoneNumbers":[""],"Website":"https:\/\/locations.fatburger.com\/ll\/IQ\/Erbil\/Erbil\/Majidi-Land-~-Kasnazan-rd","Emails":null,"Latitude":"36.20895","Longitude":"44.141357","scrape_datetime":1665257682933,"scrape_domain":"fatburger.com","scrape_store_name":"Fatburger"},{"Name":"Fatburger","Brand":"Fatburger","Status":"open","Address":"1755 102 Street NW","State":"AB","Locality":"AB","Zip":"T6N 0B1","Country":"CA","PhoneNumbers":["7804698180"],"Website":"https:\/\/locations.fatburger.com\/ll\/CA\/AB\/Edmonton\/1755-102-Street-NW","Emails":null,"Latitude":"53.445237","Longitude":"-113.490756","scrape_datetime":1665257682933,"scrape_domain":"fatburger.com","scrape_store_name":"Fatburger"},{"Name":"Fatburger","Brand":"Fatburger","Status":"open","Address":"1 Jiangguomen Wai Ave","State":"Beijing","Locality":"Beijing","Zip":"1111","Country":"CN","PhoneNumbers":[""],"Website":"https:\/\/locations.fatburger.com\/ll\/CN\/Beijing\/Beijing\/1-Jiangguomen-Wai-Ave","Emails":null,"Latitude":"39.909812","Longitude":"116.459989","scrape_datetime":1665257682933,"scrape_domain":"fatburger.com","scrape_store_name":"Fatburger"},{"Name":"Fatburger","Brand":"Fatburger","Status":"open","Address":"14402 Ventura Blvd.","State":"CA","Locality":"CA","Zip":"91423","Country":"US","PhoneNumbers":["8189053137"],"Website":"https:\/\/locations.fatburger.com\/ll\/US\/CA\/Sherman-Oaks\/14402-Ventura-Blvd_","Emails":null,"Latitude":"34.150323","Longitude":"-118.44613","scrape_datetime":1665257682933,"scrape_domain":"fatburger.com","scrape_store_name":"Fatburger"},{"Name":"Fatburger","Brand":"Fatburger","Status":"open","Address":"200 Burrard St #23","State":"BC","Locality":"BC","Zip":"V6C 3L6","Country":"CA","PhoneNumbers":["6046200422"],"Website":"https:\/\/locations.fatburger.com\/ll\/CA\/BC\/Vancouver\/200-Burrard-St-#23","Emails":null,"Latitude":"49.287399","Longitude":"-123.115002","scrape_datetime":1665257682933,"scrape_domain":"fatburger.com","scrape_store_name":"Fatburger"},{"Name":"Fatburger","Brand":"Fatburger","Status":"open","Address":"B119, no. A 2, Gongtibeilu road","State":"Beijing","Locality":"Beijing","Zip":"1111","Country":"CN","PhoneNumbers":[""],"Website":"https:\/\/locations.fatburger.com\/ll\/CN\/Beijing\/Beijing\/B119*-no_-A-2*-Gongtibeilu-road","Emails":null,"Latitude":"39.9042","Longitude":"116.407394","scrape_datetime":1665257682933,"scrape_domain":"fatburger.com","scrape_store_name":"Fatburger"},{"Name":"Fatburger","Brand":"Fatburger","Status":"open","Address":"1611 N. Vermont Ave.","State":"CA","Locality":"CA","Zip":"90027","Country":"US","PhoneNumbers":["3236633100"],"Website":"https:\/\/locations.fatburger.com\/ll\/US\/CA\/Hollywood\/1611-N_-Vermont-Ave_","Emails":null,"Latitude":"34.100846","Longitude":"-118.291993","scrape_datetime":1665257682933,"scrape_domain":"fatburger.com","scrape_store_name":"Fatburger"},{"Name":"Fatburger","Brand":"Fatburger","Status":"open","Address":"201 Southridge Drive","State":"AB","Locality":"AB","Zip":"T1S 2E1","Country":"CA","PhoneNumbers":["4039951149"],"Website":"https:\/\/locations.fatburger.com\/ll\/CA\/AB\/Okotoks\/201-Southridge-Drive","Emails":null,"Latitude":"50.704593","Longitude":"-113.973328","scrape_datetime":1665257682933,"scrape_domain":"fatburger.com","scrape_store_name":"Fatburger"},{"Name":"Fatburger","Brand":"Fatburger","Status":"open","Address":"1 West Coast Drive","State":"","Locality":"","Zip":"128020","Country":"SG","PhoneNumbers":[""],"Website":"https:\/\/locations.fatburger.com\/ll\/SG\/\/NEWest\/1-West-Coast-Drive","Emails":null,"Latitude":"1.3164853","Longitude":"103.75739","scrape_datetime":1665257682933,"scrape_domain":"fatburger.com","scrape_store_name":"Fatburger"},{"Name":"Fatburger","Brand":"Fatburger","Status":"open","Address":"1698 S. Pacific Coast Hwy","State":"CA","Locality":"CA","Zip":"90277","Country":"US","PhoneNumbers":["3103169205"],"Website":"https:\/\/locations.fatburger.com\/ll\/US\/CA\/Redondo-Beach\/1698-S_-Pacific-Coast-Hwy","Emails":null,"Latitude":"33.81902","Longitude":"-118.38361","scrape_datetime":1665257682933,"scrape_domain":"fatburger.com","scrape_store_name":"Fatburger"},{"Name":"Fatburger","Brand":"Fatburger","Status":"open","Address":"20125 64th Avenue","State":"BC","Locality":"BC","Zip":"V2Y 1M9","Country":"CA","PhoneNumbers":["6045141070"],"Website":"https:\/\/locations.fatburger.com\/ll\/CA\/BC\/Langley\/20125-64th-Avenue","Emails":null,"Latitude":"49.119479","Longitude":"-122.664726","scrape_datetime":1665257682933,"scrape_domain":"fatburger.com","scrape_store_name":"Fatburger"},{"Name":"Fatburger","Brand":"Fatburger","Status":"open","Address":"8 Grange Road","State":"","Locality":"","Zip":"239695","Country":"SG","PhoneNumbers":["62353200"],"Website":"https:\/\/locations.fatburger.com\/ll\/SG\/\/\/8-Grange-Road","Emails":null,"Latitude":"40.30164","Longitude":"-74.76482","scrape_datetime":1665257682933,"scrape_domain":"fatburger.com","scrape_store_name":"Fatburger"},{"Name":"Fatburger","Brand":"Fatburger","Status":"open","Address":"208 -121 Century Crossing","State":"AB","Locality":"AB","Zip":"T7X 0C8","Country":"CA","PhoneNumbers":["7809624245"],"Website":"https:\/\/locations.fatburger.com\/ll\/CA\/AB\/Spruce-Grove\/208-~121-Century-Crossing","Emails":null,"Latitude":"53.542413","Longitude":"-113.883577","scrape_datetime":1665257682933,"scrape_domain":"fatburger.com","scrape_store_name":"Fatburger"},{"Name":"Fatburger","Brand":"Fatburger","Status":"open","Address":"2 Tamoines Central 5","State":"","Locality":"","Zip":"529509","Country":"SG","PhoneNumbers":["62230103"],"Website":"https:\/\/locations.fatburger.com\/ll\/SG\/\/\/2-Tamoines-Central-5","Emails":null,"Latitude":"1.3523889","Longitude":"103.943855","scrape_datetime":1665257682933,"scrape_domain":"fatburger.com","scrape_store_name":"Fatburger"},{"Name":"Fatburger","Brand":"Fatburger","Status":"open","Address":"2251 West Rosecrans Ave","State":"CA","Locality":"CA","Zip":"90222","Country":"US","PhoneNumbers":["3107641771"],"Website":"https:\/\/locations.fatburger.com\/ll\/US\/CA\/Compton\/2251-West-Rosecrans-Ave","Emails":null,"Latitude":"33.903274","Longitude":"-118.256125","scrape_datetime":1665257682933,"scrape_domain":"fatburger.com","scrape_store_name":"Fatburger"},{"Name":"Fatburger","Brand":"Fatburger","Status":"open","Address":"255 West Broadway","State":"BC","Locality":"BC","Zip":"V5Y 1P5","Country":"CA","PhoneNumbers":["6045687077"],"Website":"https:\/\/locations.fatburger.com\/ll\/CA\/BC\/Vancouver\/255-West-Broadway","Emails":null,"Latitude":"49.263272","Longitude":"-123.110661","scrape_datetime":1665257682933,"scrape_domain":"fatburger.com","scrape_store_name":"Fatburger"},{"Name":"Fatburger","Brand":"Fatburger","Status":"open","Address":"1 Woodlands Road","State":"","Locality":"","Zip":"667","Country":"SG","PhoneNumbers":[""],"Website":"https:\/\/locations.fatburger.com\/ll\/SG\/\/\/1-Woodlands-Road","Emails":null,"Latitude":"1.3805116","Longitude":"103.76034","scrape_datetime":1665257682933,"scrape_domain":"fatburger.com","scrape_store_name":"Fatburger"},{"Name":"Fatburger","Brand":"Fatburger","Status":"open","Address":"2300 Paseo Verde","State":"NV","Locality":"NV","Zip":"89012","Country":"US","PhoneNumbers":["7026172209"],"Website":"https:\/\/locations.fatburger.com\/ll\/US\/NV\/Henderson\/2300-Paseo-Verde","Emails":null,"Latitude":"36.020671","Longitude":"-115.08966","scrape_datetime":1665257682933,"scrape_domain":"fatburger.com","scrape_store_name":"Fatburger"},{"Name":"Fatburger","Brand":"Fatburger","Status":"open","Address":"310-19489 Seton Crescent SE","State":"AB","Locality":"AB","Zip":"T3M 1T4","Country":"CA","PhoneNumbers":["5879559040"],"Website":"https:\/\/locations.fatburger.com\/ll\/CA\/AB\/Calgary\/310~19489-Seton-Crescent-SE","Emails":null,"Latitude":"50.881426","Longitude":"-113.957451","scrape_datetime":1665257682933,"scrape_domain":"fatburger.com","scrape_store_name":"Fatburger"},{"Name":"Fatburger","Brand":"Fatburger","Status":"open","Address":"Av. Insurgentes Sur 1066","State":"Benito Juarez","Locality":"Benito Juarez","Zip":"03100","Country":"MX","PhoneNumbers":[""],"Website":"","Emails":null,"Latitude":"19.381517","Longitude":"-99.176216","scrape_datetime":1665257682933,"scrape_domain":"fatburger.com","scrape_store_name":"Fatburger"},{"Name":"Fatburger","Brand":"Fatburger","Status":"open","Address":"26906 The Old Road","State":"CA","Locality":"CA","Zip":"91355","Country":"US","PhoneNumbers":["6612902523"],"Website":"https:\/\/locations.fatburger.com\/ll\/US\/CA\/Valencia\/26906-The-Old-Road","Emails":null,"Latitude":"34.40991","Longitude":"-118.57865","scrape_datetime":1665257682933,"scrape_domain":"fatburger.com","scrape_store_name":"Fatburger"},{"Name":"Fatburger","Brand":"Fatburger","Status":"open","Address":"3111 - 15 Sunpark Plaza N.E.","State":"AB","Locality":"AB","Zip":"T2X 0M5","Country":"CA","PhoneNumbers":["5873525860"],"Website":"https:\/\/locations.fatburger.com\/ll\/CA\/AB\/Calgary\/3111-~-15-Sunpark-Plaza-N_E_","Emails":null,"Latitude":"50.904656","Longitude":"-114.058956","scrape_datetime":1665257682933,"scrape_domain":"fatburger.com","scrape_store_name":"Fatburger"},{"Name":"Fatburger","Brand":"Fatburger","Status":"open","Address":"2845 S. Nellis Blvd.","State":"NV","Locality":"NV","Zip":"89121","Country":"US","PhoneNumbers":["7024571727"],"Website":"https:\/\/locations.fatburger.com\/ll\/US\/NV\/Las-Vegas\/2845-S_-Nellis-Blvd_","Emails":null,"Latitude":"36.13785","Longitude":"-115.06592","scrape_datetime":1665257682933,"scrape_domain":"fatburger.com","scrape_store_name":"Fatburger"},{"Name":"Fatburger","Brand":"Fatburger","Status":"open","Address":"315 8th Ave SW #366","State":"AB","Locality":"AB","Zip":"T2P 4K1","Country":"CA","PhoneNumbers":["4032658332"],"Website":"https:\/\/locations.fatburger.com\/ll\/CA\/AB\/Calgary\/315-8th-Ave-SW-#366","Emails":null,"Latitude":"51.045214","Longitude":"-114.068842","scrape_datetime":1665257682933,"scrape_domain":"fatburger.com","scrape_store_name":"Fatburger"},{"Name":"Fatburger","Brand":"Fatburger","Status":"open","Address":"314 W. Valley Pkwy","State":"CA","Locality":"CA","Zip":"92025","Country":"US","PhoneNumbers":["7604899999"],"Website":"https:\/\/locations.fatburger.com\/ll\/US\/CA\/Escondido\/314-W_-Valley-Pkwy","Emails":null,"Latitude":"33.12156","Longitude":"-117.08545","scrape_datetime":1665257682933,"scrape_domain":"fatburger.com","scrape_store_name":"Fatburger"},{"Name":"Fatburger","Brand":"Fatburger","Status":"open","Address":"31956 Lougheed Hwy. #7","State":"BC","Locality":"BC","Zip":"V2V 0C6","Country":"CA","PhoneNumbers":["6044100010"],"Website":"https:\/\/locations.fatburger.com\/ll\/CA\/BC\/Mission\/31956-Lougheed-Hwy_-#7","Emails":null,"Latitude":"49.132715","Longitude":"-122.338877","scrape_datetime":1665257682933,"scrape_domain":"fatburger.com","scrape_store_name":"Fatburger"},{"Name":"Fatburger","Brand":"Fatburger","Status":"open","Address":"33 Heritage Meadows Way SE #1000","State":"AB","Locality":"AB","Zip":"T2H 3B8","Country":"CA","PhoneNumbers":["4032551144"],"Website":"https:\/\/locations.fatburger.com\/ll\/CA\/AB\/Calgary\/33-Heritage-Meadows-Way-SE-#1000","Emails":null,"Latitude":"50.982286","Longitude":"-114.040741","scrape_datetime":1665257682933,"scrape_domain":"fatburger.com","scrape_store_name":"Fatburger"},{"Name":"Fatburger","Brand":"Fatburger","Status":"open","Address":"4199 S. Fort Apache","State":"NV","Locality":"NV","Zip":"89147","Country":"US","PhoneNumbers":["7023681244"],"Website":"https:\/\/locations.fatburger.com\/ll\/US\/NV\/Las-Vegas\/4199-S_-Fort-Apache","Emails":null,"Latitude":"36.113452","Longitude":"-115.297509","scrape_datetime":1665257682933,"scrape_domain":"fatburger.com","scrape_store_name":"Fatburger"},{"Name":"Fatburger","Brand":"Fatburger","Status":"open","Address":"3545 32 Ave. N.E.","State":"AB","Locality":"AB","Zip":"T1Y 6M6","Country":"CA","PhoneNumbers":["4034531372"],"Website":"https:\/\/locations.fatburger.com\/ll\/CA\/AB\/Calgary\/3545-32-Ave_-N_E_","Emails":null,"Latitude":"51.081097","Longitude":"-113.984947","scrape_datetime":1665257682933,"scrape_domain":"fatburger.com","scrape_store_name":"Fatburger"},{"Name":"Fatburger","Brand":"Fatburger","Status":"open","Address":"4525 N. Rancho Dr.","State":"NV","Locality":"NV","Zip":"89130","Country":"US","PhoneNumbers":["7026584604"],"Website":"https:\/\/locations.fatburger.com\/ll\/US\/NV\/Las-Vegas\/4525-N_-Rancho-Dr_","Emails":null,"Latitude":"36.24183","Longitude":"-115.23532","scrape_datetime":1665257682933,"scrape_domain":"fatburger.com","scrape_store_name":"Fatburger"},{"Name":"Fatburger","Brand":"Fatburger","Status":"open","Address":"3376 Gateway Boulevard NW","State":"AB","Locality":"AB","Zip":"T6J 6V1","Country":"CA","PhoneNumbers":["7807573252"],"Website":"https:\/\/locations.fatburger.com\/ll\/CA\/AB\/Edmonton\/3376-Gateway-Boulevard-NW","Emails":null,"Latitude":"53.466573","Longitude":"-113.492827","scrape_datetime":1665257682933,"scrape_domain":"fatburger.com","scrape_store_name":"Fatburger"},{"Name":"Fatburger","Brand":"Fatburger","Status":"open","Address":"4663 E. Sunset Rd.","State":"NV","Locality":"NV","Zip":"89014","Country":"US","PhoneNumbers":["7025475535"],"Website":"https:\/\/locations.fatburger.com\/ll\/US\/NV\/Henderson\/4663-E_-Sunset-Rd_","Emails":null,"Latitude":"36.07056","Longitude":"-115.0718","scrape_datetime":1665257682933,"scrape_domain":"fatburger.com","scrape_store_name":"Fatburger"},{"Name":"Fatburger","Brand":"Fatburger","Status":"open","Address":"4461 Lougheed Hwy #4","State":"BC","Locality":"BC","Zip":"V5C 3Z2","Country":"CA","PhoneNumbers":["6045685179"],"Website":"https:\/\/locations.fatburger.com\/ll\/CA\/BC\/Burnaby\/4461-Lougheed-Hwy-#4","Emails":null,"Latitude":"49.266802","Longitude":"-123.004341","scrape_datetime":1665257682933,"scrape_domain":"fatburger.com","scrape_store_name":"Fatburger"},{"Name":"Fatburger","Brand":"Fatburger","Status":"open","Address":"4325 Glencoe Ave.","State":"CA","Locality":"CA","Zip":"90292","Country":"US","PhoneNumbers":["3103014468"],"Website":"https:\/\/locations.fatburger.com\/ll\/US\/CA\/Marina-Del-Rey\/4325-Glencoe-Ave_","Emails":null,"Latitude":"33.98606","Longitude":"-118.43961","scrape_datetime":1665257682933,"scrape_domain":"fatburger.com","scrape_store_name":"Fatburger"},{"Name":"Fatburger","Brand":"Fatburger","Status":"open","Address":"5239 Ladner Trunk Road","State":"BC","Locality":"BC","Zip":"V4K 1W4","Country":"CA","PhoneNumbers":["7784343414"],"Website":"https:\/\/locations.fatburger.com\/ll\/CA\/BC\/Ladner\/5239-Ladner-Trunk-Road","Emails":null,"Latitude":"49.090522","Longitude":"-123.078919","scrape_datetime":1665257682933,"scrape_domain":"fatburger.com","scrape_store_name":"Fatburger"},{"Name":"Fatburger","Brand":"Fatburger","Status":"open","Address":"4949 N. Rancho Rd.","State":"NV","Locality":"NV","Zip":"89130","Country":"US","PhoneNumbers":["7022082234"],"Website":"https:\/\/locations.fatburger.com\/ll\/US\/NV\/Las-Vegas\/4949-N_-Rancho-Rd_","Emails":null,"Latitude":"36.250053","Longitude":"-115.244504","scrape_datetime":1665257682933,"scrape_domain":"fatburger.com","scrape_store_name":"Fatburger"},{"Name":"Fatburger","Brand":"Fatburger","Status":"open","Address":"555 West Hastings","State":"BC","Locality":"BC","Zip":"V6B 4N6","Country":"CA","PhoneNumbers":["6043363966"],"Website":"https:\/\/locations.fatburger.com\/ll\/CA\/BC\/Vancouver\/555-West-Hastings","Emails":null,"Latitude":"49.284843","Longitude":"-123.112134","scrape_datetime":1665257682933,"scrape_domain":"fatburger.com","scrape_store_name":"Fatburger"},{"Name":"Fatburger","Brand":"Fatburger","Status":"open","Address":"5040 Wild Horse Pass","State":"AZ","Locality":"AZ","Zip":"85226","Country":"US","PhoneNumbers":["8009464452"],"Website":"https:\/\/locations.fatburger.com\/ll\/US\/AZ\/Chandler\/5040-Wild-Horse-Pass","Emails":null,"Latitude":"33.281705","Longitude":"-111.973738","scrape_datetime":1665257682933,"scrape_domain":"fatburger.com","scrape_store_name":"Fatburger"},{"Name":"Fatburger","Brand":"Fatburger","Status":"open","Address":"5935 O'Grady Road","State":"BC","Locality":"BC","Zip":"V2N 6Z5","Country":"CA","PhoneNumbers":["2509641284"],"Website":"https:\/\/locations.fatburger.com\/ll\/CA\/BC\/Prince-George\/5935-O'Grady-Road","Emails":null,"Latitude":"53.866622","Longitude":"-122.779857","scrape_datetime":1665257682933,"scrape_domain":"fatburger.com","scrape_store_name":"Fatburger"},{"Name":"Fatburger","Brand":"Fatburger","Status":"open","Address":"5001 Wilshire Blvd.","State":"CA","Locality":"CA","Zip":"90036","Country":"US","PhoneNumbers":["3239399593"],"Website":"https:\/\/locations.fatburger.com\/ll\/US\/CA\/Los-Angeles\/5001-Wilshire-Blvd_","Emails":null,"Latitude":"34.0626","Longitude":"-118.33895","scrape_datetime":1665257682933,"scrape_domain":"fatburger.com","scrape_store_name":"Fatburger"},{"Name":"Fatburger","Brand":"Fatburger","Status":"open","Address":"6800 48th Ave","State":"AB","Locality":"AB","Zip":"T4V 4T7","Country":"CA","PhoneNumbers":["7806720506"],"Website":"https:\/\/locations.fatburger.com\/ll\/CA\/AB\/Camrose\/6800-48th-Ave","Emails":null,"Latitude":"53.01834","Longitude":"-112.860065","scrape_datetime":1665257682933,"scrape_domain":"fatburger.com","scrape_store_name":"Fatburger"},{"Name":"Fatburger","Brand":"Fatburger","Status":"open","Address":"49500 Seminole Dr.","State":"CA","Locality":"CA","Zip":"92230","Country":"US","PhoneNumbers":["9519221121"],"Website":"https:\/\/locations.fatburger.com\/ll\/US\/CA\/Cabazon\/49500-Seminole-Dr_","Emails":null,"Latitude":"33.921884","Longitude":"-116.800944","scrape_datetime":1665257682933,"scrape_domain":"fatburger.com","scrape_store_name":"Fatburger"},{"Name":"Fatburger","Brand":"Fatburger","Status":"open","Address":"703-801 15th Street East","State":"SK","Locality":"SK","Zip":"S6V 0C7","Country":"CA","PhoneNumbers":["3069703007"],"Website":"https:\/\/locations.fatburger.com\/ll\/CA\/SK\/Prince-Albert\/703~801-15th-Street-East","Emails":null,"Latitude":"53.199085","Longitude":"-105.734721","scrape_datetime":1665257682933,"scrape_domain":"fatburger.com","scrape_store_name":"Fatburger"},{"Name":"Fatburger","Brand":"Fatburger","Status":"open","Address":"6162 Sepulveda Blvd.","State":"CA","Locality":"CA","Zip":"91411","Country":"US","PhoneNumbers":["8189892695"],"Website":"https:\/\/locations.fatburger.com\/ll\/US\/CA\/Van-Nuys\/6162-Sepulveda-Blvd_","Emails":null,"Latitude":"34.18252","Longitude":"-118.465992","scrape_datetime":1665257682933,"scrape_domain":"fatburger.com","scrape_store_name":"Fatburger"},{"Name":"Fatburger","Brand":"Fatburger","Status":"open","Address":"8412 Franklin Ave","State":"AB","Locality":"AB","Zip":"T9H 2J3","Country":"CA","PhoneNumbers":["5875370124"],"Website":"https:\/\/locations.fatburger.com\/ll\/CA\/AB\/Fort-McMurray\/8412-Franklin-Ave","Emails":null,"Latitude":"56.71889","Longitude":"-111.356247","scrape_datetime":1665257682933,"scrape_domain":"fatburger.com","scrape_store_name":"Fatburger"},{"Name":"Fatburger","Brand":"Fatburger","Status":"open","Address":"6780 Cherry Ave.","State":"CA","Locality":"CA","Zip":"90805","Country":"US","PhoneNumbers":["5624081311"],"Website":"https:\/\/locations.fatburger.com\/ll\/US\/CA\/Long-Beach\/6780-Cherry-Ave_","Emails":null,"Latitude":"33.878001","Longitude":"-118.168403","scrape_datetime":1665257682933,"scrape_domain":"fatburger.com","scrape_store_name":"Fatburger"},{"Name":"Fatburger","Brand":"Fatburger","Status":"open","Address":"252 Aviation Blvd NE","State":"AB","Locality":"AB","Zip":"T2E7H8","Country":"CA","PhoneNumbers":["5876198342"],"Website":"https:\/\/locations.fatburger.com\/ll\/CA\/AB\/Calgary\/252-Aviation-Blvd-NE","Emails":null,"Latitude":"51.097258","Longitude":"-114.032252","scrape_datetime":1665257682933,"scrape_domain":"fatburger.com","scrape_store_name":"Fatburger"},{"Name":"Fatburger","Brand":"Fatburger","Status":"open","Address":"7450 Santa Monica Blvd.","State":"CA","Locality":"CA","Zip":"90046","Country":"US","PhoneNumbers":["3234360862"],"Website":"https:\/\/locations.fatburger.com\/ll\/US\/CA\/West-Hollywood\/7450-Santa-Monica-Blvd_","Emails":null,"Latitude":"34.090605","Longitude":"-118.352374","scrape_datetime":1665257682933,"scrape_domain":"fatburger.com","scrape_store_name":"Fatburger"},{"Name":"Fatburger","Brand":"Fatburger","Status":"open","Address":"3806 Albert St","State":"SK","Locality":"SK","Zip":"S4S 3R3","Country":"CA","PhoneNumbers":["3065599328"],"Website":"https:\/\/locations.fatburger.com\/ll\/CA\/SK\/Regina\/3806-Albert-St","Emails":null,"Latitude":"50.416932","Longitude":"-104.618769","scrape_datetime":1665257682933,"scrape_domain":"fatburger.com","scrape_store_name":"Fatburger"},{"Name":"Fatburger","Brand":"Fatburger","Status":"open","Address":"7984 La Palma Ave","State":"CA","Locality":"CA","Zip":"90620","Country":"US","PhoneNumbers":["7146991297"],"Website":"https:\/\/locations.fatburger.com\/ll\/US\/CA\/Buena-Park\/7984-La-Palma-Ave","Emails":null,"Latitude":"33.84645","Longitude":"-117.994005","scrape_datetime":1665257682933,"scrape_domain":"fatburger.com","scrape_store_name":"Fatburger"},{"Name":"Fatburger","Brand":"Fatburger","Status":"open","Address":"19705 Fraser Highway","State":"BC","Locality":"BC","Zip":"V3A 7E9","Country":"CA","PhoneNumbers":["6044273376"],"Website":"https:\/\/locations.fatburger.com\/ll\/CA\/BC\/Langley-City\/19705-Fraser-Highway","Emails":null,"Latitude":"49.114555","Longitude":"-122.675239","scrape_datetime":1665257682933,"scrape_domain":"fatburger.com","scrape_store_name":"Fatburger"},{"Name":"Fatburger","Brand":"Fatburger","Status":"open","Address":"8500 W 3rd St.","State":"CA","Locality":"CA","Zip":"90048","Country":"US","PhoneNumbers":["3102898810"],"Website":"https:\/\/locations.fatburger.com\/ll\/US\/CA\/Los-Angeles\/8500-W-3rd-St_","Emails":null,"Latitude":"34.07309","Longitude":"-118.37672","scrape_datetime":1665257682933,"scrape_domain":"fatburger.com","scrape_store_name":"Fatburger"},{"Name":"Fatburger","Brand":"Fatburger","Status":"open","Address":"11525 104 Avenue Northwest","State":"AB","Locality":"AB","Zip":"T5K 2S2","Country":"CA","PhoneNumbers":["7802440456"],"Website":"https:\/\/locations.fatburger.com\/ll\/CA\/AB\/Edmonton\/11525-104-Avenue-Northwest","Emails":null,"Latitude":"53.545864","Longitude":"-113.520668","scrape_datetime":1665257682933,"scrape_domain":"fatburger.com","scrape_store_name":"Fatburger"},{"Name":"Fatburger","Brand":"Fatburger","Status":"open","Address":"Harrah's Hotel & Casino Highway 50","State":"NV","Locality":"NV","Zip":"89449","Country":"US","PhoneNumbers":["7755888020"],"Website":"https:\/\/locations.fatburger.com\/united-states\/nv\/lake-tahoe-nv\/harrah's-hotel-&-casino-highway-50","Emails":null,"Latitude":"38.95916","Longitude":"-119.94175","scrape_datetime":1665257682933,"scrape_domain":"fatburger.com","scrape_store_name":"Fatburger"},{"Name":"Fatburger","Brand":"Fatburger","Status":"open","Address":"300 E Lapotac Blvd","State":"AB","Locality":"AB","Zip":"T7X 3Y3","Country":"CA","PhoneNumbers":["7809302673"],"Website":"https:\/\/locations.fatburger.com\/ll\/CA\/AB\/Edmonton\/300-E-Lapotac-Blvd","Emails":null,"Latitude":"53.510422","Longitude":"-113.696266","scrape_datetime":1665257682933,"scrape_domain":"fatburger.com","scrape_store_name":"Fatburger"},{"Name":"Fatburger","Brand":"Fatburger","Status":"open","Address":"1840 Stratchan Road SE","State":"AB","Locality":"AB","Zip":"T1B 4J8","Country":"CA","PhoneNumbers":["4034875434"],"Website":"https:\/\/locations.fatburger.com\/ll\/CA\/AB\/Medicine-Hat\/1840-Stratchan-Road-SE","Emails":null,"Latitude":"49.998686","Longitude":"-110.647856","scrape_datetime":1665257682933,"scrape_domain":"fatburger.com","scrape_store_name":"Fatburger"},{"Name":"Fatburger","Brand":"Fatburger","Status":"closed","Address":"1331 S Lone Hill Ave","State":"CA","Locality":"CA","Zip":"91740","Country":"US","PhoneNumbers":["9093940345"],"Website":"https:\/\/locations.fatburger.com\/ll\/US\/CA\/Glendora\/1331-S-Lone-Hill-Ave","Emails":null,"Latitude":"34.11488","Longitude":"-117.829389","scrape_datetime":1665257682933,"scrape_domain":"fatburger.com","scrape_store_name":"Fatburger"},{"Name":"Fatburger","Brand":"Fatburger","Status":"open","Address":"2047 Sumas Way","State":"BC","Locality":"BC","Zip":"V2S 8H6","Country":"CA","PhoneNumbers":["6048526020"],"Website":"https:\/\/locations.fatburger.com\/ll\/CA\/BC\/Abbotsford\/2047-Sumas-Way","Emails":null,"Latitude":"49.038613","Longitude":"-122.270509","scrape_datetime":1665257682933,"scrape_domain":"fatburger.com","scrape_store_name":"Fatburger"},{"Name":"Fatburger","Brand":"Fatburger","Status":"temp closed","Address":"11000 Broadway SE","State":"NM","Locality":"NM","Zip":"87105","Country":"US","PhoneNumbers":["5057243800"],"Website":"https:\/\/locations.fatburger.com\/ll\/US\/NM\/Albuquerque\/11000-Broadway-SE","Emails":null,"Latitude":"34.93795","Longitude":"-106.66194","scrape_datetime":1665257682933,"scrape_domain":"fatburger.com","scrape_store_name":"Fatburger"},{"Name":"Fatburger","Brand":"Fatburger","Status":"open","Address":"2334 46 Ave East","State":"AB","Locality":"AB","Zip":"T9E 1K2","Country":"CA","PhoneNumbers":["7808903282"],"Website":"https:\/\/locations.fatburger.com\/ll\/CA\/AB\/Edmonton\/2334-46-Ave-East","Emails":null,"Latitude":"53.306658","Longitude":"-113.553591","scrape_datetime":1665257682933,"scrape_domain":"fatburger.com","scrape_store_name":"Fatburger"},{"Name":"Fatburger","Brand":"Fatburger","Status":"open","Address":"681 E Apache Blvd","State":"AZ","Locality":"AZ","Zip":"85281","Country":"US","PhoneNumbers":["4802199764"],"Website":"https:\/\/locations.fatburger.com\/ll\/US\/AZ\/Tempe\/681-E-Apache-Blvd","Emails":null,"Latitude":"33.414375","Longitude":"-111.929006","scrape_datetime":1665257682933,"scrape_domain":"fatburger.com","scrape_store_name":"Fatburger"},{"Name":"Fatburger","Brand":"Fatburger","Status":"open","Address":"3167 Massey Drive","State":"BC","Locality":"BC","Zip":"V2N 2S9","Country":"CA","PhoneNumbers":["2364233313"],"Website":"https:\/\/locations.fatburger.com\/ll\/CA\/BC\/Prince-George\/3167-Massey-Drive","Emails":null,"Latitude":"53.899234","Longitude":"-122.780335","scrape_datetime":1665257682933,"scrape_domain":"fatburger.com","scrape_store_name":"Fatburger"},{"Name":"Fatburger","Brand":"Fatburger","Status":"open","Address":"105 - 9228 200 Street","State":"BC","Locality":"BC","Zip":"V1M 3A3","Country":"CA","PhoneNumbers":["7782982575"],"Website":"https:\/\/locations.fatburger.com\/ll\/CA\/BC\/Langley\/105-~-9228-200-Street","Emails":null,"Latitude":"49.170567","Longitude":"-122.667269","scrape_datetime":1665257682933,"scrape_domain":"fatburger.com","scrape_store_name":"Fatburger"},{"Name":"Fatburger","Brand":"Fatburger","Status":"open","Address":"1 Six Flags Blvd.","State":"NJ","Locality":"NJ","Zip":"8527","Country":"US","PhoneNumbers":[""],"Website":"https:\/\/locations.fatburger.com\/ll\/US\/NJ\/Jackson-Township\/1-Six-Flags-Blvd_","Emails":null,"Latitude":"40.131374","Longitude":"-74.462265","scrape_datetime":1665257682933,"scrape_domain":"fatburger.com","scrape_store_name":"Fatburger"},{"Name":"Fatburger","Brand":"Fatburger","Status":"open","Address":"715 Gregg Ave","State":"AB","Locality":"AB","Zip":"T7V 1N2","Country":"CA","PhoneNumbers":["7808651592"],"Website":"https:\/\/locations.fatburger.com\/ll\/CA\/AB\/Hinton\/715-Gregg-Ave","Emails":null,"Latitude":"53.388363","Longitude":"-117.614665","scrape_datetime":1665257682933,"scrape_domain":"fatburger.com","scrape_store_name":"Fatburger"},{"Name":"Fatburger","Brand":"Fatburger","Status":"open","Address":"3850 S Las Vegas Blvd","State":"NV","Locality":"NV","Zip":"89109","Country":"US","PhoneNumbers":["7024288198"],"Website":"https:\/\/locations.fatburger.com\/ll\/US\/NV\/Las-Vegas\/3850-S-Las-Vegas-Blvd","Emails":null,"Latitude":"36.09869","Longitude":"-115.17521","scrape_datetime":1665257682933,"scrape_domain":"fatburger.com","scrape_store_name":"Fatburger"},{"Name":"Fatburger","Brand":"Fatburger","Status":"open","Address":"795 Ryan Road","State":"BC","Locality":"BC","Zip":"V9N 3R6","Country":"CA","PhoneNumbers":["7782250665"],"Website":"https:\/\/locations.fatburger.com\/ll\/CA\/BC\/Courtenay\/795-Ryan-Road","Emails":null,"Latitude":"49.698302","Longitude":"-124.986745","scrape_datetime":1665257682933,"scrape_domain":"fatburger.com","scrape_store_name":"Fatburger"},{"Name":"Fatburger","Brand":"Fatburger","Status":"open","Address":"3355 S Las Vegas Blvd","State":"NV","Locality":"NV","Zip":"89109","Country":"US","PhoneNumbers":["7028949610"],"Website":"https:\/\/locations.fatburger.com\/ll\/US\/NV\/Las-Vegas\/3355-S-Las-Vegas-Blvd","Emails":null,"Latitude":"36.12241397","Longitude":"-115.1679912","scrape_datetime":1665257682933,"scrape_domain":"fatburger.com","scrape_store_name":"Fatburger"},{"Name":"Fatburger","Brand":"Fatburger","Status":"open","Address":"5611 23rd Ave NW","State":"AB","Locality":"AB","Zip":"T6L 7B9","Country":"CA","PhoneNumbers":[""],"Website":"https:\/\/locations.fatburger.com\/ll\/CA\/AB\/Edmonton\/5611-23rd-Ave-NW","Emails":null,"Latitude":"53.453276","Longitude":"-113.426226","scrape_datetime":1665257682933,"scrape_domain":"fatburger.com","scrape_store_name":"Fatburger"},{"Name":"Fatburger","Brand":"Fatburger","Status":"open","Address":"3004 Merchant Way #102","State":"BC","Locality":"BC","Zip":"V9B 5L2","Country":"CA","PhoneNumbers":[""],"Website":"https:\/\/locations.fatburger.com\/ll\/CA\/BC\/Langford\/3004-Merchant-Way-#102","Emails":null,"Latitude":"48.439531","Longitude":"-123.511124","scrape_datetime":1665257682933,"scrape_domain":"fatburger.com","scrape_store_name":"Fatburger"},{"Name":"Fatburger & Buffalo's Express","Brand":"Fatburger","Status":"temp closed","Address":"1001 W. Carson St.","State":"CA","Locality":"CA","Zip":"90502","Country":"US","PhoneNumbers":["3103286700"],"Website":"https:\/\/locations.fatburger.com\/ll\/US\/CA\/Torrance\/1001-W_-Carson-St_","Emails":null,"Latitude":"33.83181","Longitude":"-118.29287","scrape_datetime":1665257682933,"scrape_domain":"fatburger.com","scrape_store_name":"Fatburger"},{"Name":"Fatburger & Buffalo's Express","Brand":"Fatburger","Status":"open","Address":"8-9 Neeld Parade","State":"Greater London","Locality":"Greater London","Zip":"HA9 6QU","Country":"GB","PhoneNumbers":["2089009600"],"Website":"https:\/\/locations.fatburger.com\/ll\/GB\/Greater-London\/Wembley\/8~9-Neeld-Parade","Emails":null,"Latitude":"51.553754","Longitude":"-0.286533","scrape_datetime":1665257682933,"scrape_domain":"fatburger.com","scrape_store_name":"Fatburger"},{"Name":"Fatburger & Buffalo's Express","Brand":"Fatburger","Status":"open","Address":"100 Borden Drive","State":"NT","Locality":"NT","Zip":"X1A 3W1","Country":"CA","PhoneNumbers":["8679202900"],"Website":"https:\/\/locations.fatburger.com\/ll\/CA\/NT\/Yellowknife\/100-Borden-Drive","Emails":null,"Latitude":"62.449984","Longitude":"-114.406273","scrape_datetime":1665257682933,"scrape_domain":"fatburger.com","scrape_store_name":"Fatburger"},{"Name":"Fatburger & Buffalo's Express","Brand":"Fatburger","Status":"open","Address":"10600 Ventura Blvd.","State":"CA","Locality":"CA","Zip":"91604","Country":"US","PhoneNumbers":["8187698725"],"Website":"https:\/\/locations.fatburger.com\/ll\/US\/CA\/Studio-City\/10600-Ventura-Blvd_","Emails":null,"Latitude":"34.137073","Longitude":"-118.363655","scrape_datetime":1665257682933,"scrape_domain":"fatburger.com","scrape_store_name":"Fatburger"},{"Name":"Fatburger & Buffalo's Express","Brand":"Fatburger","Status":"open","Address":"Al Arid Riyadh 13332","State":"Riyadh","Locality":"Riyadh","Zip":"11462","Country":"SA","PhoneNumbers":["112154171"],"Website":"https:\/\/locations.fatburger.com\/ll\/SA\/Riyadh\/Riyadh\/Al-Arid-Riyadh-13332","Emails":null,"Latitude":"24.850294","Longitude":"46.636964","scrape_datetime":1665257682933,"scrape_domain":"fatburger.com","scrape_store_name":"Fatburger"},{"Name":"Fatburger & Buffalo's Express","Brand":"Fatburger","Status":"open","Address":"1067 Davie Street","State":"BC","Locality":"BC","Zip":"V6E 1M4","Country":"CA","PhoneNumbers":["6045881246"],"Website":"https:\/\/locations.fatburger.com\/ll\/CA\/BC\/Vancouver\/1067-Davie-Street","Emails":null,"Latitude":"49.280227","Longitude":"-123.13073","scrape_datetime":1665257682933,"scrape_domain":"fatburger.com","scrape_store_name":"Fatburger"},{"Name":"Fatburger & Buffalo's Express","Brand":"Fatburger","Status":"open","Address":"10067 Sierra Ave.","State":"CA","Locality":"CA","Zip":"92335","Country":"US","PhoneNumbers":["9093563699"],"Website":"https:\/\/locations.fatburger.com\/ll\/US\/CA\/Fontana\/10067-Sierra-Ave_","Emails":null,"Latitude":"34.071252","Longitude":"-117.435112","scrape_datetime":1665257682933,"scrape_domain":"fatburger.com","scrape_store_name":"Fatburger"},{"Name":"Fatburger & Buffalo's Express","Brand":"Fatburger","Status":"open","Address":"Tunisia Mall Lac 2 Tunisia R33e2","State":"Tunis","Locality":"Tunis","Zip":"1053","Country":"TN","PhoneNumbers":["58482038"],"Website":"https:\/\/locations.fatburger.com\/ll\/TN\/Tunis\/Tunis\/Tunisia-Mall-Lac-2-Tunisia-R33e2","Emails":null,"Latitude":"36.847848","Longitude":"10.278651","scrape_datetime":1665257682933,"scrape_domain":"fatburger.com","scrape_store_name":"Fatburger"},{"Name":"Fatburger & Buffalo's Express","Brand":"Fatburger","Status":"open","Address":"115 Betts Avenue","State":"SK","Locality":"SK","Zip":"S7M 1L2","Country":"CA","PhoneNumbers":["3064773303"],"Website":"https:\/\/locations.fatburger.com\/ll\/CA\/SK\/Saskatoon\/115-Betts-Avenue","Emails":null,"Latitude":"52.127044","Longitude":"-106.759193","scrape_datetime":1665257682933,"scrape_domain":"fatburger.com","scrape_store_name":"Fatburger"},{"Name":"Fatburger & Buffalo's Express","Brand":"Fatburger","Status":"temp closed","Address":"10970 Sherman Way","State":"CA","Locality":"CA","Zip":"91505","Country":"US","PhoneNumbers":["8185655656"],"Website":"https:\/\/locations.fatburger.com\/ll\/US\/CA\/Burbank\/10970-Sherman-Way","Emails":null,"Latitude":"34.200859","Longitude":"-118.369898","scrape_datetime":1665257682933,"scrape_domain":"fatburger.com","scrape_store_name":"Fatburger"},{"Name":"Fatburger & Buffalo's Express","Brand":"Fatburger","Status":"closed","Address":"238 Thomson Road","State":"Novena Square","Locality":"Novena Square","Zip":"307683","Country":"SG","PhoneNumbers":["62532758"],"Website":"https:\/\/locations.fatburger.com\/ll\/SG\/Novena-Square\/Novena-Square\/238-Thomson-Road","Emails":null,"Latitude":"1.320231","Longitude":"103.843443","scrape_datetime":1665257682933,"scrape_domain":"fatburger.com","scrape_store_name":"Fatburger"},{"Name":"Fatburger & Buffalo's Express","Brand":"Fatburger","Status":"open","Address":"1524 Regent Avenue West","State":"MB","Locality":"MB","Zip":"R2C 3B4","Country":"CA","PhoneNumbers":["2046544836"],"Website":"https:\/\/locations.fatburger.com\/ll\/CA\/MB\/Winnipeg\/1524-Regent-Avenue-West","Emails":null,"Latitude":"49.895181","Longitude":"-97.057821","scrape_datetime":1665257682933,"scrape_domain":"fatburger.com","scrape_store_name":"Fatburger"},{"Name":"Fatburger & Buffalo's Express","Brand":"Fatburger","Status":"open","Address":"11090 Santa Monica Blvd.","State":"CA","Locality":"CA","Zip":"90025","Country":"US","PhoneNumbers":["3104453334"],"Website":"https:\/\/locations.fatburger.com\/ll\/US\/CA\/Los-Angeles\/11090-Santa-Monica-Blvd_","Emails":null,"Latitude":"34.047392","Longitude":"-118.443774","scrape_datetime":1665257682933,"scrape_domain":"fatburger.com","scrape_store_name":"Fatburger"},{"Name":"Fatburger & Buffalo's Express","Brand":"Fatburger","Status":"open","Address":"11 Tanjong Katong Rd","State":"OneKM","Locality":"OneKM","Zip":"437157","Country":"SG","PhoneNumbers":["62455563"],"Website":"https:\/\/locations.fatburger.com\/ll\/SG\/OneKM\/OneKM\/11-Tanjong-Katong-Rd","Emails":null,"Latitude":"1.314737","Longitude":"103.894653","scrape_datetime":1665257682933,"scrape_domain":"fatburger.com","scrape_store_name":"Fatburger"},{"Name":"Fatburger & Buffalo's Express","Brand":"Fatburger","Status":"open","Address":"1703 Preston Avenue North","State":"SK","Locality":"SK","Zip":"S7N 4V2","Country":"CA","PhoneNumbers":["3069793303"],"Website":"https:\/\/locations.fatburger.com\/ll\/CA\/SK\/Saskatoon\/1703-Preston-Avenue-North","Emails":null,"Latitude":"52.146739","Longitude":"-106.622029","scrape_datetime":1665257682933,"scrape_domain":"fatburger.com","scrape_store_name":"Fatburger"},{"Name":"Fatburger & Buffalo's Express","Brand":"Fatburger","Status":"open","Address":"11226 4th St.","State":"CA","Locality":"CA","Zip":"91730","Country":"US","PhoneNumbers":["9095274004"],"Website":"https:\/\/locations.fatburger.com\/ll\/US\/CA\/Ranch-Cucamonga\/11226-4th-St_","Emails":null,"Latitude":"34.077722","Longitude":"-117.559776","scrape_datetime":1665257682933,"scrape_domain":"fatburger.com","scrape_store_name":"Fatburger"},{"Name":"Fatburger & Buffalo's Express","Brand":"Fatburger","Status":"open","Address":"14 Avenua Du Roi Abdelaziz","State":"","Locality":"","Zip":"2092","Country":"TN","PhoneNumbers":["71885045"],"Website":"https:\/\/locations.fatburger.com\/ll\/TN\/Tunis\/14-Avenua-Du-Roi-Abdelaziz","Emails":null,"Latitude":"36.842404","Longitude":"10.163269","scrape_datetime":1665257682933,"scrape_domain":"fatburger.com","scrape_store_name":"Fatburger"},{"Name":"Fatburger & Buffalo's Express","Brand":"Fatburger","Status":"open","Address":"222 Baseline Road","State":"AB","Locality":"AB","Zip":"T8H 1S8","Country":"CA","PhoneNumbers":["7804495312"],"Website":"https:\/\/locations.fatburger.com\/ll\/CA\/AB\/Sherwood-Park\/222-Baseline-Road","Emails":null,"Latitude":"53.541996","Longitude":"-113.316288","scrape_datetime":1665257682933,"scrape_domain":"fatburger.com","scrape_store_name":"Fatburger"},{"Name":"Fatburger & Buffalo's Express","Brand":"Fatburger","Status":"open","Address":"12005 Wilshire Blvd","State":"CA","Locality":"CA","Zip":"90025","Country":"US","PhoneNumbers":["3102681112"],"Website":"https:\/\/locations.fatburger.com\/ll\/US\/CA\/Los-Angeles\/12005-Wilshire-Blvd","Emails":null,"Latitude":"34.04601","Longitude":"-118.46551","scrape_datetime":1665257682933,"scrape_domain":"fatburger.com","scrape_store_name":"Fatburger"},{"Name":"Fatburger & Buffalo's Express","Brand":"Fatburger","Status":"open","Address":"3122 Mt. Lehman Road","State":"BC","Locality":"BC","Zip":"V4X 2M9","Country":"CA","PhoneNumbers":["6043814447"],"Website":"https:\/\/locations.fatburger.com\/ll\/CA\/BC\/Abbotsford\/3122-Mt_-Lehman-Road","Emails":null,"Latitude":"49.058824","Longitude":"-122.379554","scrape_datetime":1665257682933,"scrape_domain":"fatburger.com","scrape_store_name":"Fatburger"},{"Name":"Fatburger & Buffalo's Express","Brand":"Fatburger","Status":"open","Address":"1650 Casino Dr.","State":"NV","Locality":"NV","Zip":"89029","Country":"US","PhoneNumbers":["7022991032"],"Website":"https:\/\/locations.fatburger.com\/ll\/US\/NV\/Laughlin\/1650-Casino-Dr_","Emails":null,"Latitude":"35.167247","Longitude":"-114.571587","scrape_datetime":1665257682933,"scrape_domain":"fatburger.com","scrape_store_name":"Fatburger"},{"Name":"Fatburger & Buffalo's Express","Brand":"Fatburger","Status":"open","Address":"161 Leva Ave","State":"AB","Locality":"AB","Zip":"T4E 0A5","Country":"CA","PhoneNumbers":["4033480883"],"Website":"https:\/\/locations.fatburger.com\/ll\/CA\/AB\/Red-Deer-County\/161-Leva-Ave","Emails":null,"Latitude":"52.212585","Longitude":"-113.815054","scrape_datetime":1665257682933,"scrape_domain":"fatburger.com","scrape_store_name":"Fatburger"},{"Name":"Fatburger & Buffalo's Express","Brand":"Fatburger","Status":"open","Address":"1705 E Colorado Blvd","State":"CA","Locality":"CA","Zip":"91106","Country":"US","PhoneNumbers":["6262196555"],"Website":"https:\/\/locations.fatburger.com\/ll\/US\/CA\/Pasadena\/1705-E-Colorado-Blvd","Emails":null,"Latitude":"34.14619","Longitude":"-118.11522","scrape_datetime":1665257682933,"scrape_domain":"fatburger.com","scrape_store_name":"Fatburger"},{"Name":"Fatburger & Buffalo's Express","Brand":"Fatburger","Status":"open","Address":"4700 McClelland Road","State":"BC","Locality":"BC","Zip":"V6X 2K5","Country":"CA","PhoneNumbers":["6042851634"],"Website":"https:\/\/locations.fatburger.com\/ll\/CA\/BC\/Richmond\/4700-McClelland-Road","Emails":null,"Latitude":"49.178359","Longitude":"-123.121085","scrape_datetime":1665257682933,"scrape_domain":"fatburger.com","scrape_store_name":"Fatburger"},{"Name":"Fatburger & Buffalo's Express","Brand":"Fatburger","Status":"open","Address":"1916 Lincoln Blvd.","State":"CA","Locality":"CA","Zip":"90405","Country":"US","PhoneNumbers":["4243220344"],"Website":"https:\/\/locations.fatburger.com\/ll\/US\/CA\/Santa-Monica\/1916-Lincoln-Blvd_","Emails":null,"Latitude":"34.011811","Longitude":"-118.482716","scrape_datetime":1665257682933,"scrape_domain":"fatburger.com","scrape_store_name":"Fatburger"},{"Name":"Fatburger & Buffalo's Express","Brand":"Fatburger","Status":"open","Address":"5027 44th Street","State":"AB","Locality":"AB","Zip":"T9V 0A6","Country":"CA","PhoneNumbers":["7803284706"],"Website":"https:\/\/locations.fatburger.com\/ll\/CA\/AB\/Lloydminster\/5027-44th-Street","Emails":null,"Latitude":"53.277669","Longitude":"-110.007205","scrape_datetime":1665257682933,"scrape_domain":"fatburger.com","scrape_store_name":"Fatburger"},{"Name":"Fatburger & Buffalo's Express","Brand":"Fatburger","Status":"open","Address":"17181 Redmond Way","State":"WA","Locality":"WA","Zip":"98052","Country":"US","PhoneNumbers":["4254978809"],"Website":"https:\/\/locations.fatburger.com\/ll\/US\/WA\/Redmond\/17181-Redmond-Way","Emails":null,"Latitude":"47.6705","Longitude":"-122.11179","scrape_datetime":1665257682933,"scrape_domain":"fatburger.com","scrape_store_name":"Fatburger"},{"Name":"Fatburger & Buffalo's Express","Brand":"Fatburger","Status":"open","Address":"640 Sterling Lyon Parkway #1","State":"MB","Locality":"MB","Zip":"R3P 1E9","Country":"CA","PhoneNumbers":["2044532428"],"Website":"https:\/\/locations.fatburger.com\/ll\/CA\/MB\/Winnipeg\/640-Sterling-Lyon-Parkway-#1","Emails":null,"Latitude":"49.840552","Longitude":"-97.21588","scrape_datetime":1665257682933,"scrape_domain":"fatburger.com","scrape_store_name":"Fatburger"},{"Name":"Fatburger & Buffalo's Express","Brand":"Fatburger","Status":"open","Address":"21911 Ventura Blvd.","State":"CA","Locality":"CA","Zip":"91364","Country":"US","PhoneNumbers":["8187020257"],"Website":"https:\/\/locations.fatburger.com\/ll\/US\/CA\/Woodland-Hills\/21911-Ventura-Blvd_","Emails":null,"Latitude":"34.168726","Longitude":"-118.603905","scrape_datetime":1665257682933,"scrape_domain":"fatburger.com","scrape_store_name":"Fatburger"},{"Name":"Fatburger & Buffalo's Express","Brand":"Fatburger","Status":"open","Address":"6702 Golden West Avenue #902","State":"AB","Locality":"AB","Zip":"T4P 1A8","Country":"CA","PhoneNumbers":["4033476333"],"Website":"https:\/\/locations.fatburger.com\/ll\/CA\/AB\/Red-Deer\/6702-Golden-West-Avenue-#902","Emails":null,"Latitude":"52.289609","Longitude":"-113.847774","scrape_datetime":1665257682933,"scrape_domain":"fatburger.com","scrape_store_name":"Fatburger"},{"Name":"Fatburger & Buffalo's Express","Brand":"Fatburger","Status":"open","Address":"2795 Cabot Drive","State":"CA","Locality":"CA","Zip":"92883","Country":"US","PhoneNumbers":["9516385950"],"Website":"https:\/\/locations.fatburger.com\/ll\/US\/CA\/Corona\/2795-Cabot-Drive","Emails":null,"Latitude":"33.813812","Longitude":"-117.507432","scrape_datetime":1665257682933,"scrape_domain":"fatburger.com","scrape_store_name":"Fatburger"},{"Name":"Fatburger & Buffalo's Express","Brand":"Fatburger","Status":"open","Address":"690-20395 Lougheed Hwy.","State":"BC","Locality":"BC","Zip":"V2X 2P6","Country":"CA","PhoneNumbers":["6044573500"],"Website":"https:\/\/locations.fatburger.com\/ll\/CA\/BC\/Maple-Ridge\/690~20395-Lougheed-Hwy_","Emails":null,"Latitude":"49.220237","Longitude":"-122.655869","scrape_datetime":1665257682933,"scrape_domain":"fatburger.com","scrape_store_name":"Fatburger"},{"Name":"Fatburger & Buffalo's Express","Brand":"Fatburger","Status":"open","Address":"2843 Lenwood Rd.","State":"CA","Locality":"CA","Zip":"92311","Country":"US","PhoneNumbers":["7602532025"],"Website":"https:\/\/locations.fatburger.com\/ll\/US\/CA\/Barstow\/2843-Lenwood-Rd_","Emails":null,"Latitude":"34.85126","Longitude":"-117.082098","scrape_datetime":1665257682933,"scrape_domain":"fatburger.com","scrape_store_name":"Fatburger"},{"Name":"Fatburger & Buffalo's Express","Brand":"Fatburger","Status":"open","Address":"7116 Macleod trail SE #4","State":"AB","Locality":"AB","Zip":"T2H 0L3","Country":"CA","PhoneNumbers":["5873494525"],"Website":"https:\/\/locations.fatburger.com\/ll\/CA\/AB\/Calgary\/7116-Macleod-trail-SE-#4","Emails":null,"Latitude":"50.989825","Longitude":"-114.070363","scrape_datetime":1665257682933,"scrape_domain":"fatburger.com","scrape_store_name":"Fatburger"},{"Name":"Fatburger & Buffalo's Express","Brand":"Fatburger","Status":"open","Address":"3020 Manchester Blvd.","State":"CA","Locality":"CA","Zip":"90305","Country":"US","PhoneNumbers":["3239718592"],"Website":"https:\/\/locations.fatburger.com\/ll\/US\/CA\/Inglewood\/3020-Manchester-Blvd_","Emails":null,"Latitude":"33.959624","Longitude":"-118.326257","scrape_datetime":1665257682933,"scrape_domain":"fatburger.com","scrape_store_name":"Fatburger"},{"Name":"Fatburger & Buffalo's Express","Brand":"Fatburger","Status":"open","Address":"8882 170th Street NW","State":"AB","Locality":"AB","Zip":"T5T 4M2","Country":"CA","PhoneNumbers":["7807051111"],"Website":"https:\/\/locations.fatburger.com\/ll\/CA\/AB\/Edmonton\/8882-170th-Street-NW","Emails":null,"Latitude":"53.523008","Longitude":"-113.625469","scrape_datetime":1665257682933,"scrape_domain":"fatburger.com","scrape_store_name":"Fatburger"},{"Name":"Fatburger & Buffalo's Express","Brand":"Fatburger","Status":"open","Address":"3150 Wilshire Blvd.","State":"CA","Locality":"CA","Zip":"90010","Country":"US","PhoneNumbers":["2134151743"],"Website":"https:\/\/locations.fatburger.com\/ll\/US\/CA\/Los-Angeles\/3150-Wilshire-Blvd_","Emails":null,"Latitude":"34.061615","Longitude":"-118.290722","scrape_datetime":1665257682933,"scrape_domain":"fatburger.com","scrape_store_name":"Fatburger"},{"Name":"Fatburger & Buffalo's Express","Brand":"Fatburger","Status":"open","Address":"501 E Albertoni St. Suite B3","State":"CA","Locality":"CA","Zip":"90746","Country":"US","PhoneNumbers":["3102255535"],"Website":"https:\/\/locations.fatburger.com\/ll\/US\/CA\/Carson\/501-E-Albertoni-St_-Suite-B3","Emails":null,"Latitude":"33.87224","Longitude":"-118.26696","scrape_datetime":1665257682933,"scrape_domain":"fatburger.com","scrape_store_name":"Fatburger"},{"Name":"Fatburger & Buffalo's Express","Brand":"Fatburger","Status":"open","Address":"474 N. Beverly Drive","State":"CA","Locality":"CA","Zip":"90210","Country":"US","PhoneNumbers":["3102742297"],"Website":"https:\/\/locations.fatburger.com\/ll\/US\/CA\/Beverly-Hills\/474-N_-Beverly-Drive","Emails":null,"Latitude":"34.0715","Longitude":"-118.40327","scrape_datetime":1665257682933,"scrape_domain":"fatburger.com","scrape_store_name":"Fatburger"},{"Name":"Fatburger & Buffalo's Express","Brand":"Fatburger","Status":"open","Address":"5817 Crenshaw Ave","State":"CA","Locality":"CA","Zip":"90043","Country":"US","PhoneNumbers":["3232917779"],"Website":"https:\/\/locations.fatburger.com\/ll\/US\/CA\/Los-Angeles\/5817-Crenshaw-Ave","Emails":null,"Latitude":"33.98845","Longitude":"-118.33122","scrape_datetime":1665257682933,"scrape_domain":"fatburger.com","scrape_store_name":"Fatburger"},{"Name":"Fatburger & Buffalo's Express","Brand":"Fatburger","Status":"open","Address":"5867 Central Avenue","State":"CA","Locality":"CA","Zip":"90001","Country":"US","PhoneNumbers":["3232322000"],"Website":"https:\/\/locations.fatburger.com\/ll\/US\/CA\/Los-Angeles\/5867-Central-Avenue","Emails":null,"Latitude":"33.987562","Longitude":"-118.256836","scrape_datetime":1665257682933,"scrape_domain":"fatburger.com","scrape_store_name":"Fatburger"},{"Name":"Fatburger & Buffalo's Express","Brand":"Fatburger","Status":"open","Address":"650 N Moorpark Rd.","State":"CA","Locality":"CA","Zip":"91360","Country":"US","PhoneNumbers":["8053708220"],"Website":"https:\/\/locations.fatburger.com\/ll\/US\/CA\/Thousand-Oaks\/650-N-Moorpark-Rd_","Emails":null,"Latitude":"34.18721","Longitude":"-118.87439","scrape_datetime":1665257682933,"scrape_domain":"fatburger.com","scrape_store_name":"Fatburger"},{"Name":"Fatburger & Buffalo's Express","Brand":"Fatburger","Status":"open","Address":"6775 W. Flamingo Road","State":"NV","Locality":"NV","Zip":"89103","Country":"US","PhoneNumbers":["7028899009"],"Website":"https:\/\/locations.fatburger.com\/ll\/US\/NV\/Las-Vegas\/6775-W_-Flamingo-Road","Emails":null,"Latitude":"36.11417","Longitude":"-115.24048","scrape_datetime":1665257682933,"scrape_domain":"fatburger.com","scrape_store_name":"Fatburger"},{"Name":"Fatburger & Buffalo's Express","Brand":"Fatburger","Status":"open","Address":"6220 E. Lake Sammamish Parkway SE","State":"WA","Locality":"WA","Zip":"98027","Country":"US","PhoneNumbers":["4258371670"],"Website":"https:\/\/locations.fatburger.com\/ll\/US\/WA\/Issaquah\/6220-E_-Lake-Sammamish-Parkway-SE","Emails":null,"Latitude":"47.54607","Longitude":"-122.0386","scrape_datetime":1665257682933,"scrape_domain":"fatburger.com","scrape_store_name":"Fatburger"},{"Name":"Fatburger & Buffalo's Express","Brand":"Fatburger","Status":"open","Address":"72922 Baker Blvd","State":"CA","Locality":"CA","Zip":"92309","Country":"US","PhoneNumbers":["7607331048"],"Website":"https:\/\/locations.fatburger.com\/ll\/US\/CA\/Baker\/72922-Baker-Blvd","Emails":null,"Latitude":"35.277347","Longitude":"-116.056999","scrape_datetime":1665257682933,"scrape_domain":"fatburger.com","scrape_store_name":"Fatburger"},{"Name":"Fatburger & Buffalo's Express","Brand":"Fatburger","Status":"open","Address":"888 S Figueroa st","State":"CA","Locality":"CA","Zip":"90017","Country":"US","PhoneNumbers":["2138910899"],"Website":"https:\/\/locations.fatburger.com\/ll\/US\/CA\/Los-Angeles\/888-S-Figueroa-st","Emails":null,"Latitude":"34.0469","Longitude":"-118.26185","scrape_datetime":1665257682933,"scrape_domain":"fatburger.com","scrape_store_name":"Fatburger"},{"Name":"Fatburger & Buffalo's Express","Brand":"Fatburger","Status":"open","Address":"28255 N Tatum Blvd","State":"AZ","Locality":"AZ","Zip":"85331","Country":"US","PhoneNumbers":["4809350540"],"Website":"https:\/\/locations.fatburger.com\/ll\/US\/AZ\/Cave-Creek\/28255-N-Tatum-Blvd","Emails":null,"Latitude":"33.742036","Longitude":"-111.977579","scrape_datetime":1665257682933,"scrape_domain":"fatburger.com","scrape_store_name":"Fatburger"},{"Name":"Fatburger & Buffalo's Express","Brand":"Fatburger","Status":"open","Address":"3828 Hamner Ave.","State":"CA","Locality":"CA","Zip":"91752","Country":"US","PhoneNumbers":["9516851517"],"Website":"https:\/\/locations.fatburger.com\/ll\/US\/CA\/Eastvale\/3828-Hamner-Ave","Emails":null,"Latitude":"34.018586","Longitude":"-117.557286","scrape_datetime":1665257682933,"scrape_domain":"fatburger.com","scrape_store_name":"Fatburger"},{"Name":"Fatburger & Buffalo's Express","Brand":"Fatburger","Status":"open","Address":"939 W. Huntington Drive","State":"CA","Locality":"CA","Zip":"91016","Country":"US","PhoneNumbers":["6262561016"],"Website":"https:\/\/locations.fatburger.com\/ll\/US\/CA\/Monrovia\/939-W_-Huntington-Drive","Emails":null,"Latitude":"34.140953","Longitude":"-118.019627","scrape_datetime":1665257682933,"scrape_domain":"fatburger.com","scrape_store_name":"Fatburger"},{"Name":"Fatburger & Buffalo's Express","Brand":"Fatburger","Status":"open","Address":"169 Route 14","State":"PA","Locality":"PA","Zip":"17771","Country":"US","PhoneNumbers":["5709803357"],"Website":"https:\/\/locations.fatburger.com\/ll\/US\/PA\/Trout-Run\/169-Route-14","Emails":null,"Latitude":"41.38508","Longitude":"-77.05691","scrape_datetime":1665257682933,"scrape_domain":"fatburger.com","scrape_store_name":"Fatburger"},{"Name":"Fatburger & Buffalo's Express","Brand":"Fatburger","Status":"open","Address":"21020 Beach Blvd","State":"CA","Locality":"CA","Zip":"92648","Country":"US","PhoneNumbers":["7143740077"],"Website":"https:\/\/locations.fatburger.com\/ll\/US\/CA\/Huntington-Beach\/21020-Beach-Blvd","Emails":null,"Latitude":"33.65702","Longitude":"-117.98791","scrape_datetime":1665257682933,"scrape_domain":"fatburger.com","scrape_store_name":"Fatburger"},{"Name":"Fatburger & Buffalo's Express","Brand":"Fatburger","Status":"open","Address":"2000 New Jersey 38","State":"NJ","Locality":"NJ","Zip":"08002","Country":"US","PhoneNumbers":["8567555878"],"Website":"https:\/\/locations.fatburger.com\/ll\/US\/NJ\/Cherry-Hill\/2000-New-Jersey-38","Emails":null,"Latitude":"39.940421","Longitude":"-75.026034","scrape_datetime":1665257682933,"scrape_domain":"fatburger.com","scrape_store_name":"Fatburger"},{"Name":"Fatburger & Buffalo's Express","Brand":"Fatburger","Status":"open","Address":"570 S. Clovis Ave","State":"CA","Locality":"CA","Zip":"93727","Country":"US","PhoneNumbers":["5592289922"],"Website":"https:\/\/locations.fatburger.com\/ll\/US\/CA\/Fresno\/570-S_-Clovis-Ave","Emails":null,"Latitude":"36.73704","Longitude":"-119.70063","scrape_datetime":1665257682933,"scrape_domain":"fatburger.com","scrape_store_name":"Fatburger"},{"Name":"Fatburger & Buffalo's Express","Brand":"Fatburger","Status":"open","Address":"11510 Fashion Ct.","State":"CA","Locality":"CA","Zip":"92344","Country":"US","PhoneNumbers":["7609470437"],"Website":"https:\/\/locations.fatburger.com\/ll\/US\/CA\/Hesperia\/11510-Fashion-Ct_","Emails":null,"Latitude":"34.382355","Longitude":"-117.410514","scrape_datetime":1665257682933,"scrape_domain":"fatburger.com","scrape_store_name":"Fatburger"},{"Name":"Fatburger & Buffalo's Express","Brand":"Fatburger","Status":"open","Address":"3457 Arlington Ave","State":"CA","Locality":"CA","Zip":"92506","Country":"US","PhoneNumbers":["9519000012"],"Website":"https:\/\/locations.fatburger.com\/ll\/US\/CA\/Riverside\/3457-Arlington-Ave","Emails":null,"Latitude":"33.94765","Longitude":"-117.38607","scrape_datetime":1665257682933,"scrape_domain":"fatburger.com","scrape_store_name":"Fatburger"},{"Name":"Fatburger & Buffalo's Express","Brand":"Fatburger","Status":"open","Address":"6039 Precinct Line Rd Ste #180 Ste #180","State":"TX","Locality":"TX","Zip":"76180","Country":"US","PhoneNumbers":["8175764774"],"Website":"https:\/\/locations.fatburger.com\/ll\/US\/TX\/North-Richland-Hills\/6039-Precinct-Line-Rd-Ste-#180-Ste-%23180","Emails":null,"Latitude":"32.85613","Longitude":"-97.187633","scrape_datetime":1665257682933,"scrape_domain":"fatburger.com","scrape_store_name":"Fatburger"},{"Name":"Fatburger & Buffalo's Express","Brand":"Fatburger","Status":"open","Address":"3548 Airport Way","State":"AK","Locality":"AK","Zip":"99709","Country":"US","PhoneNumbers":["9076877434"],"Website":"https:\/\/locations.fatburger.com\/ll\/US\/AK\/Fairbanks\/3548-Airport-Way","Emails":null,"Latitude":"64.83727","Longitude":"-147.80716","scrape_datetime":1665257682933,"scrape_domain":"fatburger.com","scrape_store_name":"Fatburger"},{"Name":"Fatburger & Buffalo's Express","Brand":"Fatburger","Status":"open","Address":"4945 Eagle Rock Blvd","State":"CA","Locality":"CA","Zip":"90041","Country":"US","PhoneNumbers":["3237390437"],"Website":"https:\/\/locations.fatburger.com\/ll\/US\/CA\/Los-Angeles\/4945-Eagle-Rock-Blvd","Emails":null,"Latitude":"34.13601","Longitude":"-118.21544","scrape_datetime":1665257682933,"scrape_domain":"fatburger.com","scrape_store_name":"Fatburger"},{"Name":"Fatburger & Buffalo's Express","Brand":"Fatburger","Status":"open","Address":"6760 Hollywood Blvd.","State":"CA","Locality":"CA","Zip":"90028","Country":"US","PhoneNumbers":["3238714088"],"Website":"https:\/\/locations.fatburger.com\/ll\/US\/CA\/Los-Angeles\/6760-Hollywood-Blvd_","Emails":null,"Latitude":"34.101409","Longitude":"-118.337906","scrape_datetime":1665257682933,"scrape_domain":"fatburger.com","scrape_store_name":"Fatburger"},{"Name":"Fatburger & Buffalo's Express","Brand":"Fatburger","Status":"open","Address":"7600 Balboa Blvd.","State":"CA","Locality":"CA","Zip":"91406","Country":"US","PhoneNumbers":["8182858008"],"Website":"https:\/\/locations.fatburger.com\/ll\/US\/CA\/Lake-Balboa\/7600-Balboa-Blvd_","Emails":null,"Latitude":"34.20869","Longitude":"-118.50069","scrape_datetime":1665257682933,"scrape_domain":"fatburger.com","scrape_store_name":"Fatburger"},{"Name":"Fatburger & Buffalo's Express","Brand":"Fatburger","Status":"open","Address":"504 S Frontage Rd NW","State":"WA","Locality":"WA","Zip":"98848","Country":"US","PhoneNumbers":["5097972272"],"Website":"https:\/\/locations.fatburger.com\/ll\/US\/WA\/George\/504-S-Frontage-Rd-NW","Emails":null,"Latitude":"47.080515","Longitude":"-119.86287","scrape_datetime":1665257682933,"scrape_domain":"fatburger.com","scrape_store_name":"Fatburger"},{"Name":"Fatburger & Buffalo's Express","Brand":"Fatburger","Status":"open","Address":"740 E. Ventura Blvd.","State":"CA","Locality":"CA","Zip":"93010","Country":"US","PhoneNumbers":["8055864225"],"Website":"https:\/\/locations.fatburger.com\/ll\/US\/CA\/Camarillo\/740-E_-Ventura-Blvd_","Emails":null,"Latitude":"34.21584","Longitude":"-119.06203","scrape_datetime":1665257682933,"scrape_domain":"fatburger.com","scrape_store_name":"Fatburger"},{"Name":"Fatburger & Buffalo's Express","Brand":"Fatburger","Status":"open","Address":"3342 S La Cienega Blvd.","State":"CA","Locality":"CA","Zip":"90016","Country":"US","PhoneNumbers":["3238523377"],"Website":"https:\/\/locations.fatburger.com\/ll\/US\/CA\/Los-Angeles\/3342-S-La-Cienega-Blvd_","Emails":null,"Latitude":"34.02694","Longitude":"-118.3718","scrape_datetime":1665257682933,"scrape_domain":"fatburger.com","scrape_store_name":"Fatburger"},{"Name":"Fatburger & Buffalo's Express","Brand":"Fatburger","Status":"open","Address":"114 Versailles Blvd.","State":"LA","Locality":"LA","Zip":"71303","Country":"US","PhoneNumbers":["3186257488"],"Website":"https:\/\/locations.fatburger.com\/ll\/US\/LA\/Alexandria\/114-Versailles-Blvd_","Emails":null,"Latitude":"31.28748","Longitude":"-92.50615","scrape_datetime":1665257682933,"scrape_domain":"fatburger.com","scrape_store_name":"Fatburger"},{"Name":"Fatburger & Buffalo's Express","Brand":"Fatburger","Status":"open","Address":"420 N. Main Street Suite 111","State":"CA","Locality":"CA","Zip":"92880","Country":"US","PhoneNumbers":["9514079003"],"Website":"https:\/\/locations.fatburger.com\/ll\/US\/CA\/Corona\/420-N_-Main-Street-Suite-111","Emails":null,"Latitude":"33.88629","Longitude":"-117.56557","scrape_datetime":1665257682933,"scrape_domain":"fatburger.com","scrape_store_name":"Fatburger"},{"Name":"Fatburger & Buffalo's Express","Brand":"Fatburger","Status":"open","Address":"6715 La Tijera Blvd.","State":"CA","Locality":"CA","Zip":"90045","Country":"US","PhoneNumbers":["3104174043"],"Website":"https:\/\/locations.fatburger.com\/ll\/US\/CA\/Los-Angeles\/6715-La-Tijera-Blvd_","Emails":null,"Latitude":"33.979006","Longitude":"-118.370726","scrape_datetime":1665257682933,"scrape_domain":"fatburger.com","scrape_store_name":"Fatburger"},{"Name":"Fatburger & Buffalo's Express","Brand":"Fatburger","Status":"open","Address":"14283 I-10","State":"AZ","Locality":"AZ","Zip":"85334","Country":"US","PhoneNumbers":["9282640600"],"Website":"https:\/\/locations.fatburger.com\/ll\/US\/AZ\/Ehrenberg\/14283-I~10","Emails":null,"Latitude":"33.6042","Longitude":"-114.52092","scrape_datetime":1665257682933,"scrape_domain":"fatburger.com","scrape_store_name":"Fatburger"},{"Name":"Fatburger & Buffalo's Express","Brand":"Fatburger","Status":"open","Address":"1139 Artesia Blvd. #C","State":"CA","Locality":"CA","Zip":"90266","Country":"US","PhoneNumbers":["3103729977"],"Website":"https:\/\/locations.fatburger.com\/ll\/US\/CA\/Manhattan-Beach\/1139-Artesia-Blvd_-#C","Emails":null,"Latitude":"33.873109","Longitude":"-118.394701","scrape_datetime":1665257682933,"scrape_domain":"fatburger.com","scrape_store_name":"Fatburger"},{"Name":"Fatburger & Buffalo's Express","Brand":"Fatburger","Status":"open","Address":"135 Old Valley School Rd.","State":"PA","Locality":"PA","Zip":"17821","Country":"US","PhoneNumbers":["5702750700"],"Website":"https:\/\/locations.fatburger.com\/ll\/US\/PA\/Danville\/135-Old-Valley-School-Rd_","Emails":null,"Latitude":"40.994187","Longitude":"-76.64164","scrape_datetime":1665257682933,"scrape_domain":"fatburger.com","scrape_store_name":"Fatburger"},{"Name":"Fatburger & Buffalo's Express","Brand":"Fatburger","Status":"open","Address":"13427 Hull St Road","State":"VA","Locality":"VA","Zip":"23112","Country":"US","PhoneNumbers":["8046080272"],"Website":"https:\/\/locations.fatburger.com\/ll\/US\/VA\/Midlothian\/13427-Hull-St-Road","Emails":null,"Latitude":"37.41211607739784","Longitude":"-77.64569268220902","scrape_datetime":1665257682933,"scrape_domain":"fatburger.com","scrape_store_name":"Fatburger"},{"Name":"Fatburger & Buffalo's Express","Brand":"Fatburger","Status":"open","Address":"820 W Stacy Rd #620","State":"TX","Locality":"TX","Zip":"75013","Country":"US","PhoneNumbers":["9726780154"],"Website":"https:\/\/locations.fatburger.com\/ll\/US\/TX\/Allen\/820-W-Stacy-Rd-#620","Emails":null,"Latitude":"33.13256","Longitude":"-96.660995","scrape_datetime":1665257682933,"scrape_domain":"fatburger.com","scrape_store_name":"Fatburger"},{"Name":"Fatburger & Buffalo's Express","Brand":"Fatburger","Status":"open","Address":"18137 S. Hwy 93","State":"AZ","Locality":"AZ","Zip":"85360","Country":"US","PhoneNumbers":[""],"Website":"https:\/\/locations.fatburger.com\/ll\/US\/AZ\/Wikieup\/18137-S_-Hwy-93","Emails":null,"Latitude":"34.70074","Longitude":"-113.61084","scrape_datetime":1665257682933,"scrape_domain":"fatburger.com","scrape_store_name":"Fatburger"},{"Name":"Fatburger & Buffalo's Express","Brand":"Fatburger","Status":"open","Address":"1551 Premium Outlets Blvd., Suite 270","State":"VA","Locality":"VA","Zip":"23502","Country":"US","PhoneNumbers":["7579373020"],"Website":"https:\/\/locations.fatburger.com\/ll\/US\/VA\/Norfolk\/1551-Premium-Outlets-Blvd_*-Suite-270","Emails":null,"Latitude":"36.87938","Longitude":"-76.19474","scrape_datetime":1665257682933,"scrape_domain":"fatburger.com","scrape_store_name":"Fatburger"},{"Name":"Fatburger & Buffalo's Express","Brand":"Fatburger","Status":"open","Address":"1961 Walters Rd.","State":"CA","Locality":"CA","Zip":"94585","Country":"US","PhoneNumbers":["7076399968"],"Website":"https:\/\/locations.fatburger.com\/ll\/US\/CA\/Suisun-City\/1961-Walters-Rd_","Emails":null,"Latitude":"38.26451404978611","Longitude":"-121.98729046857835","scrape_datetime":1665257682933,"scrape_domain":"fatburger.com","scrape_store_name":"Fatburger"},{"Name":"Fatburger & Buffalo's Express","Brand":"Fatburger","Status":"open","Address":"4720 Elk Grove Blvd.","State":"CA","Locality":"CA","Zip":"95758","Country":"US","PhoneNumbers":["9168292007"],"Website":"https:\/\/locations.fatburger.com\/ll\/US\/CA\/Elk-Grove\/4720-Elk-Grove-Blvd_","Emails":null,"Latitude":"38.407867","Longitude":"-121.44964","scrape_datetime":1665257682933,"scrape_domain":"fatburger.com","scrape_store_name":"Fatburger"},{"Name":"Fatburger & Buffalo's Express","Brand":"Fatburger","Status":"open","Address":"1807 N. Collins St.","State":"TX","Locality":"TX","Zip":"76011","Country":"US","PhoneNumbers":["8179620067"],"Website":"https:\/\/locations.fatburger.com\/ll\/US\/TX\/Arlington\/1807-N_-Collins-St_","Emails":null,"Latitude":"32.763157","Longitude":"-97.09628","scrape_datetime":1665257682933,"scrape_domain":"fatburger.com","scrape_store_name":"Fatburger"},{"Name":"Fatburger & Buffalo's Express","Brand":"Fatburger","Status":"open","Address":"2655 Everett Freeman Way","State":"CA","Locality":"CA","Zip":"96021","Country":"US","PhoneNumbers":["5305283500"],"Website":"https:\/\/locations.fatburger.com\/ll\/US\/CA\/Corning\/2655-Everett-Freeman-Way","Emails":null,"Latitude":"39.874622","Longitude":"-122.202805","scrape_datetime":1665257682933,"scrape_domain":"fatburger.com","scrape_store_name":"Fatburger"},{"Name":"Fatburger & Buffalo's Express","Brand":"Fatburger","Status":"open","Address":"38 S. Broadview St","State":"AR","Locality":"AR","Zip":"72058","Country":"US","PhoneNumbers":["5016790404"],"Website":"https:\/\/locations.fatburger.com\/ll\/US\/AR\/Greenbrier\/38-S_-Broadview-St","Emails":null,"Latitude":"35.230276400824614","Longitude":"-92.38766072150413","scrape_datetime":1665257682933,"scrape_domain":"fatburger.com","scrape_store_name":"Fatburger"},{"Name":"Fatburger & Buffalo's Express","Brand":"Fatburger","Status":"open","Address":"32603 Avenue 7","State":"CA","Locality":"CA","Zip":"93637","Country":"US","PhoneNumbers":["5592142707"],"Website":"https:\/\/locations.fatburger.com\/ll\/US\/CA\/Madera\/32603-Avenue-7","Emails":null,"Latitude":"36.85134688","Longitude":"-119.9541183","scrape_datetime":1665257682933,"scrape_domain":"fatburger.com","scrape_store_name":"Fatburger"},{"Name":"Fatburger & Buffalo's Express","Brand":"Fatburger","Status":"open","Address":"1452 W Lexington Avenue","State":"KY","Locality":"KY","Zip":"40391","Country":"US","PhoneNumbers":["8596445301"],"Website":"https:\/\/locations.fatburger.com\/ll\/US\/KY\/Winchester\/1452-W-Lexington-Avenue","Emails":null,"Latitude":"38.00498966479011","Longitude":"-84.207062625468","scrape_datetime":1665257682933,"scrape_domain":"fatburger.com","scrape_store_name":"Fatburger"},{"Name":"Fatburger & Buffalo's Express","Brand":"Fatburger","Status":"open","Address":"5000 S. Arizona Mills Circle","State":"AZ","Locality":"AZ","Zip":"85282","Country":"US","PhoneNumbers":["6028597878"],"Website":"https:\/\/locations.fatburger.com\/ll\/US\/AZ\/Tempe\/5000-S_-Arizona-Mills-Circle","Emails":null,"Latitude":"33.38492559122536","Longitude":"-111.96539804419608","scrape_datetime":1665257682933,"scrape_domain":"fatburger.com","scrape_store_name":"Fatburger"},{"Name":"Fatburger & Buffalo's Express","Brand":"Fatburger","Status":"open","Address":"2556 N.Greenwich Rd.","State":"KS","Locality":"KS","Zip":"67226","Country":"US","PhoneNumbers":["3164409988"],"Website":"https:\/\/locations.fatburger.com\/ll\/US\/KS\/Wichita\/2556-N_Greenwich-Rd_","Emails":null,"Latitude":"37.72880609","Longitude":"-97.20676365","scrape_datetime":1665257682933,"scrape_domain":"fatburger.com","scrape_store_name":"Fatburger"},{"Name":"Fatburger & Buffalo's Express","Brand":"Fatburger","Status":"open","Address":"2022 First Street","State":"CA","Locality":"CA","Zip":"93065","Country":"US","PhoneNumbers":["8052857878"],"Website":"https:\/\/locations.fatburger.com\/ll\/US\/CA\/Simi-Valley\/2022-First-Street","Emails":null,"Latitude":"34.27214","Longitude":"-118.77839","scrape_datetime":1665257682933,"scrape_domain":"fatburger.com","scrape_store_name":"Fatburger"},{"Name":"Fatburger & Buffalo's Express","Brand":"Fatburger","Status":"open","Address":"8097 Sudley Rd","State":"VA","Locality":"VA","Zip":"20109","Country":"US","PhoneNumbers":[""],"Website":"https:\/\/locations.fatburger.com\/ll\/US\/VA\/Manassas\/8097-Sudley-Rd","Emails":null,"Latitude":"38.78131663","Longitude":"-77.50929237","scrape_datetime":1665257682933,"scrape_domain":"fatburger.com","scrape_store_name":"Fatburger"},{"Name":"Fatburger & Buffalo's Express","Brand":"Fatburger","Status":"coming soon","Address":"1855 Dallas Pkwy","State":"TX","Locality":"TX","Zip":"75093","Country":"US","PhoneNumbers":[""],"Website":"https:\/\/locations.fatburger.com\/ll\/US\/TX\/Plano\/1855-Dallas-Pkwy","Emails":null,"Latitude":"33.02587405","Longitude":"-96.83112468","scrape_datetime":1665257682933,"scrape_domain":"fatburger.com","scrape_store_name":"Fatburger"},{"Name":"Fatburger & Buffalo's Express","Brand":"Fatburger","Status":"open","Address":"805 N. Willow Avenue","State":"CA","Locality":"CA","Zip":"93611","Country":"US","PhoneNumbers":["5599407257"],"Website":"https:\/\/locations.fatburger.com\/ll\/US\/CA\/Clovis\/805-N_-Willow-Avenue","Emails":null,"Latitude":"36.73707939","Longitude":"-119.7005145","scrape_datetime":1665257682933,"scrape_domain":"fatburger.com","scrape_store_name":"Fatburger"},{"Name":"Fatburger & Buffalo's Express","Brand":"Fatburger","Status":"coming soon","Address":"365 Coneflower Drive","State":"TX","Locality":"TX","Zip":"75040","Country":"US","PhoneNumbers":["9724964035"],"Website":"https:\/\/locations.fatburger.com\/ll\/US\/TX\/Garland\/365-Coneflower-Drive","Emails":null,"Latitude":"32.952187","Longitude":"-96.61303","scrape_datetime":1665257682933,"scrape_domain":"fatburger.com","scrape_store_name":"Fatburger"},{"Name":"Fatburger & Buffalo's Express","Brand":"Fatburger","Status":"coming soon","Address":"4806 Laurel Canyon Blvd","State":"CA","Locality":"CA","Zip":"91607","Country":"US","PhoneNumbers":["8186913897"],"Website":"https:\/\/locations.fatburger.com\/ll\/US\/CA\/Valley-Village\/4806-Laurel-Canyon-Blvd","Emails":null,"Latitude":"32.952187","Longitude":"-96.61303","scrape_datetime":1665257682933,"scrape_domain":"fatburger.com","scrape_store_name":"Fatburger"},{"Name":"Fatburger & Buffalo's Express Square 2","Brand":"Fatburger","Status":"open","Address":"10 Sinaran Dr","State":"","Locality":"","Zip":"307506","Country":"SG","PhoneNumbers":[""],"Website":"https:\/\/locations.fatburger.com\/ll\/SG\/\/\/10-Sinaran-Dr","Emails":null,"Latitude":"1.3206513","Longitude":"103.84437","scrape_datetime":1665257682933,"scrape_domain":"fatburger.com","scrape_store_name":"Fatburger"},{"Name":"Fatburger Quance","Brand":"Fatburger","Status":"open","Address":"3435 Quance Street","State":"SK","Locality":"SK","Zip":"S4V 2Y4","Country":"CA","PhoneNumbers":["3065226400"],"Website":"https:\/\/locations.fatburger.com\/ll\/CA\/SK\/Regina\/3435-Quance-Street","Emails":null,"Latitude":"50.442909","Longitude":"-104.5335","scrape_datetime":1665257682933,"scrape_domain":"fatburger.com","scrape_store_name":"Fatburger"},{"Name":"Fatburger Star Vista","Brand":"Fatburger","Status":"open","Address":"1 Vista Exchange Green #01-33\/K2","State":"","Locality":"","Zip":"138617","Country":"SG","PhoneNumbers":[""],"Website":"https:\/\/locations.fatburger.com\/ll\/SG\/Singapore\/1-Vista-Exchange-Green-#01~33+_K2","Emails":null,"Latitude":"1.306797","Longitude":"103.788487","scrape_datetime":1665257682933,"scrape_domain":"fatburger.com","scrape_store_name":"Fatburger"}]