[{"Name":"A-Fresh IGA Belmore","Brand":"gingerpeople","Status":null,"Address":" 541A Burwood Road","State":"NSW","Locality":"BELMORE","Zip":"2192","Country":"au","PhoneNumbers":["02 8076 5518"],"Website":"","Emails":[""],"Latitude":"-33.9235143","Longitude":"151.0910462","scrape_datetime":1665254702140,"scrape_domain":"au.gingerpeople.com","scrape_store_name":"gingerpeople"},{"Name":"About Health in Dickson","Brand":"gingerpeople","Status":null,"Address":"Shop 2 22\/28 Dickson Place","State":"ACT","Locality":"DICKSON","Zip":"2602","Country":"au","PhoneNumbers":[""],"Website":"","Emails":[""],"Latitude":"-35.2505753","Longitude":"149.1391977","scrape_datetime":1665254702140,"scrape_domain":"au.gingerpeople.com","scrape_store_name":"gingerpeople"},{"Name":"Afghan Traders","Brand":"gingerpeople","Status":null,"Address":"Shop 10\/10 Smith Street Polana Centre","State":"NT","Locality":"ALICE SPRINGS","Zip":"870","Country":"au","PhoneNumbers":["08 8955 5560"],"Website":"","Emails":[""],"Latitude":"-23.6928597","Longitude":"133.8746722","scrape_datetime":1665254702140,"scrape_domain":"au.gingerpeople.com","scrape_store_name":"gingerpeople"},{"Name":"Albany Plaza Discount Drug Store","Brand":"gingerpeople","Status":null,"Address":"Shop 14-16 Albany Plaza S\/C 38 Albany Highway","State":"WA","Locality":"ALBANY","Zip":"6330","Country":"au","PhoneNumbers":["08 9841 5855"],"Website":"","Emails":[""],"Latitude":"-35.0196249","Longitude":"117.8826811","scrape_datetime":1665254702140,"scrape_domain":"au.gingerpeople.com","scrape_store_name":"gingerpeople"},{"Name":"Alive Pharmacy Warehouse Calliope","Brand":"gingerpeople","Status":null,"Address":"Shop 17 Calliope S\/C 2041 Dawsen Highway","State":"QLD","Locality":"CALLIOPE","Zip":"4680","Country":"au","PhoneNumbers":["07 4975 7946"],"Website":"","Emails":[""],"Latitude":"-23.9974864","Longitude":"151.2108361","scrape_datetime":1665254702140,"scrape_domain":"au.gingerpeople.com","scrape_store_name":"gingerpeople"},{"Name":"Alive Pharmacy Warehouse Cooktown","Brand":"gingerpeople","Status":null,"Address":"Shops 1-3 O'Connor Arcade 100 Charlotte St","State":"QLD","Locality":"COOKTOWN","Zip":"4895","Country":"au","PhoneNumbers":["07 4069 5434"],"Website":"","Emails":[""],"Latitude":"-15.4692805","Longitude":"145.2491848","scrape_datetime":1665254702140,"scrape_domain":"au.gingerpeople.com","scrape_store_name":"gingerpeople"},{"Name":"Alive Pharmacy Warehouse Innisfail","Brand":"gingerpeople","Status":null,"Address":"35 Palmerston Drive ","State":"QLD","Locality":"GOONDI BEND","Zip":"4860","Country":"au","PhoneNumbers":["07 4061 1143"],"Website":"","Emails":[""],"Latitude":"-17.525228","Longitude":"146.0137203","scrape_datetime":1665254702140,"scrape_domain":"au.gingerpeople.com","scrape_store_name":"gingerpeople"},{"Name":"Alive Pharmacy Warehouse Lake Street","Brand":"gingerpeople","Status":null,"Address":"Shop 13 Orchid Plaza 58 Lake Street","State":"QLD","Locality":"CAIRNS","Zip":"4870","Country":"au","PhoneNumbers":["07 4051 2137"],"Website":"","Emails":[""],"Latitude":"-16.9227296","Longitude":"145.7772164","scrape_datetime":1665254702140,"scrape_domain":"au.gingerpeople.com","scrape_store_name":"gingerpeople"},{"Name":"Alive Pharmacy Warehouse Smithfield","Brand":"gingerpeople","Status":null,"Address":"Shop 140 Smithfield S\/C ","State":"QLD","Locality":"SMITHFIELD","Zip":"4878","Country":"au","PhoneNumbers":["07 4038 8900"],"Website":"","Emails":[""],"Latitude":"-16.8365468","Longitude":"145.6924269","scrape_datetime":1665254702140,"scrape_domain":"au.gingerpeople.com","scrape_store_name":"gingerpeople"},{"Name":"Alive Pharmacy Warehouse Smithfield Doctors","Brand":"gingerpeople","Status":null,"Address":"7-11 Mt Milman Drive ","State":"QLD","Locality":"SMITHFIELD","Zip":"4878","Country":"au","PhoneNumbers":[""],"Website":"","Emails":[""],"Latitude":"-16.8383086","Longitude":"145.6938687","scrape_datetime":1665254702140,"scrape_domain":"au.gingerpeople.com","scrape_store_name":"gingerpeople"},{"Name":"All Things Natural & Organic","Brand":"gingerpeople","Status":null,"Address":"25 High Street ","State":"VIC","Locality":"MANSFIELD","Zip":"3722","Country":"au","PhoneNumbers":["03 5779 1705"],"Website":"","Emails":[""],"Latitude":"-37.0521616","Longitude":"146.0911189","scrape_datetime":1665254702140,"scrape_domain":"au.gingerpeople.com","scrape_store_name":"gingerpeople"},{"Name":"Alma Organic","Brand":"gingerpeople","Status":null,"Address":"Shop 118 Point Cook Town Ctr Main Street","State":"VIC","Locality":"POINT COOK","Zip":"3030","Country":"au","PhoneNumbers":["03 9394 7500"],"Website":"","Emails":[""],"Latitude":"-37.8830032","Longitude":"144.7350894","scrape_datetime":1665254702140,"scrape_domain":"au.gingerpeople.com","scrape_store_name":"gingerpeople"},{"Name":"Almar Organics","Brand":"gingerpeople","Status":null,"Address":"539 Nurigong Street ","State":"NSW","Locality":"SOUTH ALBURY","Zip":"2640","Country":"au","PhoneNumbers":[""],"Website":"","Emails":[""],"Latitude":"-36.0913005","Longitude":"146.9139339","scrape_datetime":1665254702140,"scrape_domain":"au.gingerpeople.com","scrape_store_name":"gingerpeople"},{"Name":"Alps and Amici Foodstore","Brand":"gingerpeople","Status":null,"Address":"52 Abbott Street ","State":"TAS","Locality":"EAST LAUNCESTON","Zip":"7250","Country":"au","PhoneNumbers":["03 6331 1777"],"Website":"","Emails":[""],"Latitude":"-41.4388895","Longitude":"147.1514729","scrape_datetime":1665254702140,"scrape_domain":"au.gingerpeople.com","scrape_store_name":"gingerpeople"},{"Name":"Amcal Chemist Salamander Bay","Brand":"gingerpeople","Status":null,"Address":"12 Salamander Shopping Centre ","State":"NSW","Locality":"SALAMANDER BAY","Zip":"2317","Country":"au","PhoneNumbers":["02 4982 7644"],"Website":"","Emails":[""],"Latitude":"-32.7358506","Longitude":"152.106768","scrape_datetime":1665254702140,"scrape_domain":"au.gingerpeople.com","scrape_store_name":"gingerpeople"},{"Name":"Annandale Village Pharmacy","Brand":"gingerpeople","Status":null,"Address":"107 Johnston Street ","State":"NSW","Locality":"ANNANDALE","Zip":"2038","Country":"au","PhoneNumbers":["02 9660 1276"],"Website":"","Emails":[""],"Latitude":"-33.8813933","Longitude":"151.1709761","scrape_datetime":1665254702140,"scrape_domain":"au.gingerpeople.com","scrape_store_name":"gingerpeople"},{"Name":"Annapurna Wholefoods","Brand":"gingerpeople","Status":null,"Address":"Shop 1\/120 Bussell Highway ","State":"WA","Locality":"MARGARET RIVER","Zip":"6285","Country":"au","PhoneNumbers":["08 9757 2059"],"Website":"","Emails":[""],"Latitude":"-33.9505475","Longitude":"115.0737645","scrape_datetime":1665254702140,"scrape_domain":"au.gingerpeople.com","scrape_store_name":"gingerpeople"},{"Name":"Anns Natural Health Foods","Brand":"gingerpeople","Status":null,"Address":"Shop 33 303 Grange Road","State":"SA","Locality":"FINDON","Zip":"5023","Country":"au","PhoneNumbers":["08 8353 7400"],"Website":"","Emails":[""],"Latitude":"-34.9049847","Longitude":"138.5302118","scrape_datetime":1665254702140,"scrape_domain":"au.gingerpeople.com","scrape_store_name":"gingerpeople"},{"Name":"Arcadia Store","Brand":"gingerpeople","Status":null,"Address":"C\/o Tropical North Wholesaler Shop 6, 304 Boundary Street","State":"QLD","Locality":"SOUTH TOWNSVILLE","Zip":"4810","Country":"au","PhoneNumbers":[""],"Website":"","Emails":[""],"Latitude":"-19.2685459","Longitude":"146.8334834","scrape_datetime":1665254702140,"scrape_domain":"au.gingerpeople.com","scrape_store_name":"gingerpeople"},{"Name":"Ashgrove Fresh Fruit Market","Brand":"gingerpeople","Status":null,"Address":"Cnr Stewart Rd and Harry St ","State":"QLD","Locality":"ASHGROVE","Zip":"4060","Country":"au","PhoneNumbers":[""],"Website":"","Emails":[""],"Latitude":"-27.444788","Longitude":"152.991704","scrape_datetime":1665254702140,"scrape_domain":"au.gingerpeople.com","scrape_store_name":"gingerpeople"},{"Name":"Atherton Wholelife Pharmacy & Healthfoods","Brand":"gingerpeople","Status":null,"Address":"Shop 5a Silo Shopping Centre 1 Silo Road","State":"QLD","Locality":"ATHERTON","Zip":"4883","Country":"au","PhoneNumbers":["07 4091 1027"],"Website":"","Emails":[""],"Latitude":"-17.2675702","Longitude":"145.4733845","scrape_datetime":1665254702140,"scrape_domain":"au.gingerpeople.com","scrape_store_name":"gingerpeople"},{"Name":"Aumanns At Warrandyte","Brand":"gingerpeople","Status":null,"Address":"150 Harris Gully Road ","State":"VIC","Locality":"WARRANDYTE","Zip":"3113","Country":"au","PhoneNumbers":["03 9844 3464"],"Website":"","Emails":[""],"Latitude":"-37.7641543","Longitude":"145.1995566","scrape_datetime":1665254702140,"scrape_domain":"au.gingerpeople.com","scrape_store_name":"gingerpeople"},{"Name":"Australian Nutrition Centre","Brand":"gingerpeople","Status":null,"Address":"Shop2\/32 Thuringowa Drive ","State":"QLD","Locality":"KIRWAN","Zip":"4817","Country":"au","PhoneNumbers":["07 4755 4999"],"Website":"","Emails":[""],"Latitude":"-19.3135601","Longitude":"146.7288277","scrape_datetime":1665254702140,"scrape_domain":"au.gingerpeople.com","scrape_store_name":"gingerpeople"},{"Name":"Avalon Wholefoods Store (Searles)","Brand":"gingerpeople","Status":null,"Address":"25 Old Barrenjoey Road ","State":"NSW","Locality":"AVALON BEACH","Zip":"2107","Country":"au","PhoneNumbers":["02 9918 6224"],"Website":"","Emails":[""],"Latitude":"-33.6372502","Longitude":"151.32838","scrape_datetime":1665254702140,"scrape_domain":"au.gingerpeople.com","scrape_store_name":"gingerpeople"},{"Name":"Avalons Organics","Brand":"gingerpeople","Status":null,"Address":"25 Avalon Parade ","State":"NSW","Locality":"AVALON BEACH","Zip":"2107","Country":"au","PhoneNumbers":["02 9918 3387"],"Website":"","Emails":[""],"Latitude":"-33.6366847","Longitude":"151.3294969","scrape_datetime":1665254702140,"scrape_domain":"au.gingerpeople.com","scrape_store_name":"gingerpeople"},{"Name":"Azesty Health","Brand":"gingerpeople","Status":null,"Address":"194a High Street ","State":"VIC","Locality":"WODONGA","Zip":"3690","Country":"au","PhoneNumbers":[""],"Website":"","Emails":[""],"Latitude":"-36.12268","Longitude":"146.88836","scrape_datetime":1665254702140,"scrape_domain":"au.gingerpeople.com","scrape_store_name":"gingerpeople"},{"Name":"Bacchus Marsh Natural Health","Brand":"gingerpeople","Status":null,"Address":"18\/160 Main Street ","State":"VIC","Locality":"BACCHUS MARSH","Zip":"3340","Country":"au","PhoneNumbers":["03 5367 5639"],"Website":"","Emails":[""],"Latitude":"-37.675123","Longitude":"144.4394292","scrape_datetime":1665254702140,"scrape_domain":"au.gingerpeople.com","scrape_store_name":"gingerpeople"},{"Name":"Bairnsdale WholeFoods","Brand":"gingerpeople","Status":null,"Address":"6b Service Street ","State":"VIC","Locality":"BAIRNSDALE","Zip":"3875","Country":"au","PhoneNumbers":["03 5152 6544"],"Website":"","Emails":[""],"Latitude":"-37.824254","Longitude":"147.6283894","scrape_datetime":1665254702140,"scrape_domain":"au.gingerpeople.com","scrape_store_name":"gingerpeople"},{"Name":"Balmain Community Pharmacy","Brand":"gingerpeople","Status":null,"Address":"273 Darling Street ","State":"NSW","Locality":"BALMAIN","Zip":"2041","Country":"au","PhoneNumbers":["02 9810 2942"],"Website":"","Emails":[""],"Latitude":"-33.8574015","Longitude":"151.181388","scrape_datetime":1665254702140,"scrape_domain":"au.gingerpeople.com","scrape_store_name":"gingerpeople"},{"Name":"Bambu Wholefoods","Brand":"gingerpeople","Status":null,"Address":"118 Summerland Way ","State":"NSW","Locality":"KYOGLE","Zip":"2474","Country":"au","PhoneNumbers":["02 6632 1881"],"Website":"","Emails":[""],"Latitude":"-28.6210786","Longitude":"153.0043382","scrape_datetime":1665254702140,"scrape_domain":"au.gingerpeople.com","scrape_store_name":"gingerpeople"},{"Name":"Barr St Discount Drug Store","Brand":"gingerpeople","Status":null,"Address":"Shop 1 Barr St Market Place ","State":"QLD","Locality":"EARLVILLE","Zip":"4870","Country":"au","PhoneNumbers":["07 4242 4610"],"Website":"","Emails":[""],"Latitude":"-16.9456608","Longitude":"145.7375327","scrape_datetime":1665254702140,"scrape_domain":"au.gingerpeople.com","scrape_store_name":"gingerpeople"},{"Name":"Basgers Pharmacy","Brand":"gingerpeople","Status":null,"Address":"1 Mitchell Street ","State":"NSW","Locality":"NORTH BONDI","Zip":"2026","Country":"au","PhoneNumbers":[""],"Website":"","Emails":[""],"Latitude":"-33.8821883","Longitude":"151.2763415","scrape_datetime":1665254702140,"scrape_domain":"au.gingerpeople.com","scrape_store_name":"gingerpeople"},{"Name":"Bayside Natural Health Centre","Brand":"gingerpeople","Status":null,"Address":"49 Bay Street ","State":"NSW","Locality":"DOUBLE BAY","Zip":"2028","Country":"au","PhoneNumbers":["02 9327 8002"],"Website":"","Emails":[""],"Latitude":"-33.876338","Longitude":"151.2421002","scrape_datetime":1665254702140,"scrape_domain":"au.gingerpeople.com","scrape_store_name":"gingerpeople"},{"Name":"Baz and Shaz Fruit and Veg","Brand":"gingerpeople","Status":null,"Address":"44 Beech Drive ","State":"NSW","Locality":"SUFFOLK PARK","Zip":"2481","Country":"au","PhoneNumbers":["02 6685 4445"],"Website":"","Emails":[""],"Latitude":"-28.6857663","Longitude":"153.6039882","scrape_datetime":1665254702140,"scrape_domain":"au.gingerpeople.com","scrape_store_name":"gingerpeople"},{"Name":"Beaufort Chemist","Brand":"gingerpeople","Status":null,"Address":"647 Beaufort Street ","State":"WA","Locality":"MOUNT LAWLEY","Zip":"6050","Country":"au","PhoneNumbers":["08 9328 7775"],"Website":"","Emails":[""],"Latitude":"-31.9344533","Longitude":"115.8716293","scrape_datetime":1665254702140,"scrape_domain":"au.gingerpeople.com","scrape_store_name":"gingerpeople"},{"Name":"Bellingen Pharmacy Pty Ltd","Brand":"gingerpeople","Status":null,"Address":"70 Hyde Street ","State":"NSW","Locality":"BELLINGEN","Zip":"2454","Country":"au","PhoneNumbers":["02 6655 1124"],"Website":"","Emails":[""],"Latitude":"-30.4522151","Longitude":"152.8964694","scrape_datetime":1665254702140,"scrape_domain":"au.gingerpeople.com","scrape_store_name":"gingerpeople"},{"Name":"Belrowes News & MiniMart","Brand":"gingerpeople","Status":null,"Address":"Shop 10\/49 Bundock Street ","State":"QLD","Locality":"BELGIAN GARDENS","Zip":"4810","Country":"au","PhoneNumbers":[""],"Website":"","Emails":[""],"Latitude":"-19.2455468","Longitude":"146.7960312","scrape_datetime":1665254702140,"scrape_domain":"au.gingerpeople.com","scrape_store_name":"gingerpeople"},{"Name":"Bendigo Wholefoods","Brand":"gingerpeople","Status":null,"Address":"314 Lyttleton Terrace ","State":"VIC","Locality":"BENDIGO","Zip":"3550","Country":"au","PhoneNumbers":[""],"Website":"","Emails":[""],"Latitude":"-36.7612981","Longitude":"144.2815377","scrape_datetime":1665254702140,"scrape_domain":"au.gingerpeople.com","scrape_store_name":"gingerpeople"},{"Name":"Bentleigh Health Foods","Brand":"gingerpeople","Status":null,"Address":"Shop 1\/325 Centre Road ","State":"VIC","Locality":"BENTLEIGH","Zip":"3204","Country":"au","PhoneNumbers":[""],"Website":"","Emails":[""],"Latitude":"-37.9178365","Longitude":"145.0350886","scrape_datetime":1665254702140,"scrape_domain":"au.gingerpeople.com","scrape_store_name":"gingerpeople"},{"Name":"Beyond Organic Wholefoods","Brand":"gingerpeople","Status":null,"Address":"513 High St ","State":"VIC","Locality":"PRAHRAN EAST","Zip":"3181","Country":"au","PhoneNumbers":["03 9521 2555"],"Website":"","Emails":[""],"Latitude":"-37.8533077","Longitude":"145.0053997","scrape_datetime":1665254702140,"scrape_domain":"au.gingerpeople.com","scrape_store_name":"gingerpeople"},{"Name":"BG's Farmstand","Brand":"gingerpeople","Status":null,"Address":"Unit 1\/77 Strelly Street ","State":"WA","Locality":"BUSSELTON","Zip":"6280","Country":"au","PhoneNumbers":[""],"Website":"","Emails":[""],"Latitude":"-33.6628683","Longitude":"115.3494551","scrape_datetime":1665254702140,"scrape_domain":"au.gingerpeople.com","scrape_store_name":"gingerpeople"},{"Name":"Bicton 7 Day Pharmacy","Brand":"gingerpeople","Status":null,"Address":"260 Canning Highway ","State":"WA","Locality":"BICTON","Zip":"6157","Country":"au","PhoneNumbers":["08 9339 8009"],"Website":"","Emails":[""],"Latitude":"-32.0381545","Longitude":"115.7764054","scrape_datetime":1665254702140,"scrape_domain":"au.gingerpeople.com","scrape_store_name":"gingerpeople"},{"Name":"Bill's Scoops","Brand":"gingerpeople","Status":null,"Address":"Shop 11 Kardinya Park SC Cnr North Lake Rd & South St","State":"WA","Locality":"KARDINYA","Zip":"6163","Country":"au","PhoneNumbers":["08 9314 5055"],"Website":"","Emails":[""],"Latitude":"-32.0675971","Longitude":"115.8171318","scrape_datetime":1665254702140,"scrape_domain":"au.gingerpeople.com","scrape_store_name":"gingerpeople"},{"Name":"Billee IGA Kingsford","Brand":"gingerpeople","Status":null,"Address":"361 Anzac Parade ","State":"NSW","Locality":"KINGSFORD","Zip":"2032","Country":"au","PhoneNumbers":["07 9663 4737"],"Website":"","Emails":[""],"Latitude":"-33.9240768","Longitude":"151.2273886","scrape_datetime":1665254702140,"scrape_domain":"au.gingerpeople.com","scrape_store_name":"gingerpeople"},{"Name":"Billy Hill Organic Store","Brand":"gingerpeople","Status":null,"Address":"3378 Huon Hwy ","State":"TAS","Locality":"FRANKLIN","Zip":"7113","Country":"au","PhoneNumbers":["03 6266 3944"],"Website":"","Emails":[""],"Latitude":"-43.0884449","Longitude":"147.0111993","scrape_datetime":1665254702140,"scrape_domain":"au.gingerpeople.com","scrape_store_name":"gingerpeople"},{"Name":"Bingara IGA","Brand":"gingerpeople","Status":null,"Address":"41-45 Maitland street ","State":"NSW","Locality":"BINGARA","Zip":"2404","Country":"au","PhoneNumbers":[""],"Website":"","Emails":[""],"Latitude":"-29.8694052","Longitude":"150.5723186","scrape_datetime":1665254702140,"scrape_domain":"au.gingerpeople.com","scrape_store_name":"gingerpeople"},{"Name":"Bio Shop","Brand":"gingerpeople","Status":null,"Address":"59 Rene Street ","State":"QLD","Locality":"NOOSAVILLE","Zip":"4566","Country":"au","PhoneNumbers":[""],"Website":"","Emails":[""],"Latitude":"-26.4178162","Longitude":"153.0435494","scrape_datetime":1665254702140,"scrape_domain":"au.gingerpeople.com","scrape_store_name":"gingerpeople"},{"Name":"Biome Eco Living Burwood","Brand":"gingerpeople","Status":null,"Address":"Shop T14 70 Middleborough Road","State":"VIC","Locality":"BURWOOD EAST","Zip":"3151","Country":"au","PhoneNumbers":[""],"Website":"","Emails":[""],"Latitude":"-37.8489091","Longitude":"145.1331242","scrape_datetime":1665254702140,"scrape_domain":"au.gingerpeople.com","scrape_store_name":"gingerpeople"},{"Name":"Biome Living Balmoral","Brand":"gingerpeople","Status":null,"Address":"216 Riding Rd ","State":"QLD","Locality":"BALMORAL","Zip":"4171","Country":"au","PhoneNumbers":["07 3399 3040"],"Website":"","Emails":[""],"Latitude":"-27.4598035","Longitude":"153.0628916","scrape_datetime":1665254702140,"scrape_domain":"au.gingerpeople.com","scrape_store_name":"gingerpeople"},{"Name":"Biome Living Brisbane","Brand":"gingerpeople","Status":null,"Address":"33 Adelaide Street ","State":"QLD","Locality":"BRISBANE","Zip":"4000","Country":"au","PhoneNumbers":["07 3211 3311"],"Website":"","Emails":[""],"Latitude":"-27.4698126","Longitude":"153.023611","scrape_datetime":1665254702140,"scrape_domain":"au.gingerpeople.com","scrape_store_name":"gingerpeople"},{"Name":"Biome Southport","Brand":"gingerpeople","Status":null,"Address":"Shop 3D The Brickworks Centre 107 Ferry Road","State":"QLD","Locality":"SOUTHPORT","Zip":"4215","Country":"au","PhoneNumbers":["07 3505 0156"],"Website":"","Emails":[""],"Latitude":"-27.9800488","Longitude":"153.4098637","scrape_datetime":1665254702140,"scrape_domain":"au.gingerpeople.com","scrape_store_name":"gingerpeople"},{"Name":"Black Rock Grocer","Brand":"gingerpeople","Status":null,"Address":"7-11 Bluff Road ","State":"VIC","Locality":"BLACK ROCK","Zip":"3193","Country":"au","PhoneNumbers":[""],"Website":"","Emails":[""],"Latitude":"-37.9749445","Longitude":"145.0160628","scrape_datetime":1665254702140,"scrape_domain":"au.gingerpeople.com","scrape_store_name":"gingerpeople"},{"Name":"Blackwood Apothecary","Brand":"gingerpeople","Status":null,"Address":"75b Regent St ","State":"NSW","Locality":"NEW LAMBTON","Zip":"2305","Country":"au","PhoneNumbers":[""],"Website":"","Emails":[""],"Latitude":"-32.9235793","Longitude":"151.713489","scrape_datetime":1665254702140,"scrape_domain":"au.gingerpeople.com","scrape_store_name":"gingerpeople"},{"Name":"Blackwood Health Foods","Brand":"gingerpeople","Status":null,"Address":"248 Main Road ","State":"SA","Locality":"BLACKWOOD","Zip":"5051","Country":"au","PhoneNumbers":["08 8278 5226"],"Website":"","Emails":[""],"Latitude":"-35.0204416","Longitude":"138.6150785","scrape_datetime":1665254702140,"scrape_domain":"au.gingerpeople.com","scrape_store_name":"gingerpeople"},{"Name":"Blaxland Day & Night Pharmacy","Brand":"gingerpeople","Status":null,"Address":"138 Great Western Highway ","State":"NSW","Locality":"BLAXLAND","Zip":"2774","Country":"au","PhoneNumbers":["02 4739 1611"],"Website":"","Emails":[""],"Latitude":"-33.7443161","Longitude":"150.6097766","scrape_datetime":1665254702140,"scrape_domain":"au.gingerpeople.com","scrape_store_name":"gingerpeople"},{"Name":"Blenheim Road Pharmacy","Brand":"gingerpeople","Status":null,"Address":"8 Blenheim Rd ","State":"NSW","Locality":"NORTH RYDE","Zip":"2113","Country":"au","PhoneNumbers":["02 9888 1888"],"Website":"","Emails":[""],"Latitude":"-33.8011277","Longitude":"151.1307962","scrape_datetime":1665254702140,"scrape_domain":"au.gingerpeople.com","scrape_store_name":"gingerpeople"},{"Name":"Bliss Health and Bulk Food","Brand":"gingerpeople","Status":null,"Address":"5b Young Street ","State":"QLD","Locality":"SOUTHPORT","Zip":"4215","Country":"au","PhoneNumbers":["07 5528 0803"],"Website":"","Emails":[""],"Latitude":"-27.9687503","Longitude":"153.4137716","scrape_datetime":1665254702140,"scrape_domain":"au.gingerpeople.com","scrape_store_name":"gingerpeople"},{"Name":"Blooms The Chemist Tweed Heads","Brand":"gingerpeople","Status":null,"Address":"Shop 115 Tweed City S\/C ","State":"NSW","Locality":"TWEED HEADS SOUTH","Zip":"2486","Country":"au","PhoneNumbers":["07 5524 4974"],"Website":"","Emails":[""],"Latitude":"-28.2006262","Longitude":"153.5450324","scrape_datetime":1665254702140,"scrape_domain":"au.gingerpeople.com","scrape_store_name":"gingerpeople"},{"Name":"Bondi Pharmacy","Brand":"gingerpeople","Status":null,"Address":"81 Hall Street ","State":"NSW","Locality":"BONDI BEACH","Zip":"2026","Country":"au","PhoneNumbers":["02 9130 4680"],"Website":"","Emails":[""],"Latitude":"-33.8893988","Longitude":"151.2716098","scrape_datetime":1665254702140,"scrape_domain":"au.gingerpeople.com","scrape_store_name":"gingerpeople"},{"Name":"Bondi Rd Fruitologist","Brand":"gingerpeople","Status":null,"Address":"151 Bondi Road ","State":"NSW","Locality":"BONDI BEACH","Zip":"2026","Country":"au","PhoneNumbers":["02 9387 2575"],"Website":"","Emails":[""],"Latitude":"-33.8938957","Longitude":"151.26357","scrape_datetime":1665254702140,"scrape_domain":"au.gingerpeople.com","scrape_store_name":"gingerpeople"},{"Name":"Bowden IGA Plant 4","Brand":"gingerpeople","Status":null,"Address":"1 Third Street ","State":"SA","Locality":"BOWDEN","Zip":"5007","Country":"au","PhoneNumbers":["08 7325 0389"],"Website":"","Emails":[""],"Latitude":"-34.9063486","Longitude":"138.5783817","scrape_datetime":1665254702140,"scrape_domain":"au.gingerpeople.com","scrape_store_name":"gingerpeople"},{"Name":"BP Murwillumbah","Brand":"gingerpeople","Status":null,"Address":"216 Tweed Valley Way ","State":"NSW","Locality":"MURWILLUMBAH","Zip":"2484","Country":"au","PhoneNumbers":["02 6672 8355"],"Website":"","Emails":[""],"Latitude":"-28.329006","Longitude":"153.4030945","scrape_datetime":1665254702140,"scrape_domain":"au.gingerpeople.com","scrape_store_name":"gingerpeople"},{"Name":"Brighton Foodland","Brand":"gingerpeople","Status":null,"Address":"527 Brighton Road ","State":"SA","Locality":"BRIGHTON","Zip":"5048","Country":"au","PhoneNumbers":["08 8296 2066"],"Website":"","Emails":[""],"Latitude":"-35.0218704","Longitude":"138.5229514","scrape_datetime":1665254702140,"scrape_domain":"au.gingerpeople.com","scrape_store_name":"gingerpeople"},{"Name":"Brighton Grocer","Brand":"gingerpeople","Status":null,"Address":"112 Were Street ","State":"VIC","Locality":"BRIGHTON","Zip":"3186","Country":"au","PhoneNumbers":["03 9592 1928"],"Website":"","Emails":[""],"Latitude":"-37.9258538","Longitude":"144.9993208","scrape_datetime":1665254702140,"scrape_domain":"au.gingerpeople.com","scrape_store_name":"gingerpeople"},{"Name":"Broad Bean Organic Grocer","Brand":"gingerpeople","Status":null,"Address":"Shop 3 26 Fanning Street ","State":"VIC","Locality":"SOUTHBANK","Zip":"3006","Country":"au","PhoneNumbers":[""],"Website":"","Emails":[""],"Latitude":"-37.8225826","Longitude":"144.9666678","scrape_datetime":1665254702140,"scrape_domain":"au.gingerpeople.com","scrape_store_name":"gingerpeople"},{"Name":"Broadbeach Central IGA X-Press","Brand":"gingerpeople","Status":null,"Address":"2719 Gold Coast Highway ","State":"QLD","Locality":"BROADBEACH","Zip":"4218","Country":"au","PhoneNumbers":[""],"Website":"","Emails":[""],"Latitude":"-28.0280114","Longitude":"153.4302135","scrape_datetime":1665254702140,"scrape_domain":"au.gingerpeople.com","scrape_store_name":"gingerpeople"},{"Name":"Broome Natural Wellness","Brand":"gingerpeople","Status":null,"Address":"Shop 20 Boulevarde S\/C Frederick Street","State":"WA","Locality":"BROOME","Zip":"6725","Country":"au","PhoneNumbers":["08 9192 1217"],"Website":"","Emails":[""],"Latitude":"-17.9525511","Longitude":"122.2288717","scrape_datetime":1665254702140,"scrape_domain":"au.gingerpeople.com","scrape_store_name":"gingerpeople"},{"Name":"Brunswick Heads Health Foods","Brand":"gingerpeople","Status":null,"Address":"20 Fingal Street ","State":"NSW","Locality":"BRUNSWICK HEADS","Zip":"2483","Country":"au","PhoneNumbers":["02 6685 1338"],"Website":"","Emails":[""],"Latitude":"-28.5408757","Longitude":"153.5500556","scrape_datetime":1665254702140,"scrape_domain":"au.gingerpeople.com","scrape_store_name":"gingerpeople"},{"Name":"Buderim Ginger Shoppe","Brand":"gingerpeople","Status":null,"Address":"3\/188 Main Street ","State":"QLD","Locality":"MONTVILLE","Zip":"4560","Country":"au","PhoneNumbers":["07 5478 5534"],"Website":"","Emails":[""],"Latitude":"-26.6913936","Longitude":"152.8938136","scrape_datetime":1665254702140,"scrape_domain":"au.gingerpeople.com","scrape_store_name":"gingerpeople"},{"Name":"Buderim Health Store","Brand":"gingerpeople","Status":null,"Address":"1\/56 Burnett Street ","State":"QLD","Locality":"BUDERIM","Zip":"4556","Country":"au","PhoneNumbers":["07 5445 3256"],"Website":"","Emails":[""],"Latitude":"-26.6860895","Longitude":"153.0499199","scrape_datetime":1665254702140,"scrape_domain":"au.gingerpeople.com","scrape_store_name":"gingerpeople"},{"Name":"Bunbartha Beef","Brand":"gingerpeople","Status":null,"Address":"Wintersun Fruit 91 Benalla Rd","State":"VIC","Locality":"SHEPPARTON","Zip":"3630","Country":"au","PhoneNumbers":[""],"Website":"","Emails":[""],"Latitude":"-36.3853224","Longitude":"145.4226572","scrape_datetime":1665254702140,"scrape_domain":"au.gingerpeople.com","scrape_store_name":"gingerpeople"},{"Name":"Bundaberg Health Foods","Brand":"gingerpeople","Status":null,"Address":"51E Woongarra Street ","State":"QLD","Locality":"BUNDABERG","Zip":"4670","Country":"au","PhoneNumbers":["07 4151 5187"],"Website":"","Emails":[""],"Latitude":"-24.8667458","Longitude":"152.3499609","scrape_datetime":1665254702140,"scrape_domain":"au.gingerpeople.com","scrape_store_name":"gingerpeople"},{"Name":"Burleigh Town Chempro Chemist","Brand":"gingerpeople","Status":null,"Address":"Shop 5-6 Stocklands Shopping C 149 West Burleigh Road","State":"QLD","Locality":"BURLEIGH HEADS","Zip":"4220","Country":"au","PhoneNumbers":["07 5535 9866"],"Website":"","Emails":[""],"Latitude":"-28.0976274","Longitude":"153.4408799","scrape_datetime":1665254702140,"scrape_domain":"au.gingerpeople.com","scrape_store_name":"gingerpeople"},{"Name":"Burnie Wholefoods","Brand":"gingerpeople","Status":null,"Address":"25 Wilmot Street ","State":"TAS","Locality":"BURNIE","Zip":"7320","Country":"au","PhoneNumbers":[""],"Website":"","Emails":[""],"Latitude":"-41.051108","Longitude":"145.9060208","scrape_datetime":1665254702140,"scrape_domain":"au.gingerpeople.com","scrape_store_name":"gingerpeople"},{"Name":"Burringbar Pharmacy","Brand":"gingerpeople","Status":null,"Address":"2\/29 Broadway ","State":"NSW","Locality":"BURRINGBAR","Zip":"2483","Country":"au","PhoneNumbers":[""],"Website":"","Emails":[""],"Latitude":"-28.4345918","Longitude":"153.4704979","scrape_datetime":1665254702140,"scrape_domain":"au.gingerpeople.com","scrape_store_name":"gingerpeople"},{"Name":"Busselton Discount Drug Store","Brand":"gingerpeople","Status":null,"Address":"Shop 8 67 Kent Street","State":"WA","Locality":"BUSSELTON","Zip":"6280","Country":"au","PhoneNumbers":["08 9752 1879"],"Website":"","Emails":[""],"Latitude":"-33.6496022","Longitude":"115.3454249","scrape_datetime":1665254702140,"scrape_domain":"au.gingerpeople.com","scrape_store_name":"gingerpeople"},{"Name":"Busy Bee Pharmacy","Brand":"gingerpeople","Status":null,"Address":"223 William Street ","State":"WA","Locality":"NORTHBRIDGE","Zip":"6003","Country":"au","PhoneNumbers":["08 9328 7885"],"Website":"","Emails":[""],"Latitude":"-31.9485519","Longitude":"115.8594546","scrape_datetime":1665254702140,"scrape_domain":"au.gingerpeople.com","scrape_store_name":"gingerpeople"},{"Name":"Cafe One 3","Brand":"gingerpeople","Status":null,"Address":"13 Waterson Way ","State":"QLD","Locality":"AIRLIE BEACH","Zip":"4802","Country":"au","PhoneNumbers":[""],"Website":"","Emails":[""],"Latitude":"-20.2698399","Longitude":"148.715682","scrape_datetime":1665254702140,"scrape_domain":"au.gingerpeople.com","scrape_store_name":"gingerpeople"},{"Name":"Calanna Pharmacy Atherton","Brand":"gingerpeople","Status":null,"Address":"49 Main Street ","State":"QLD","Locality":"ATHERTON","Zip":"4883","Country":"au","PhoneNumbers":["07 4089 2900"],"Website":"","Emails":[""],"Latitude":"-17.2650958","Longitude":"145.4760398","scrape_datetime":1665254702140,"scrape_domain":"au.gingerpeople.com","scrape_store_name":"gingerpeople"},{"Name":"Calanna Pharmacy Edmonton","Brand":"gingerpeople","Status":null,"Address":"Sugarworld Shopping Centre Shop 12\/7-11 Walker Road","State":"QLD","Locality":"EDMONTON","Zip":"4869","Country":"au","PhoneNumbers":["07 4045 5526"],"Website":"","Emails":[""],"Latitude":"-17.0191709","Longitude":"145.7278798","scrape_datetime":1665254702140,"scrape_domain":"au.gingerpeople.com","scrape_store_name":"gingerpeople"},{"Name":"Calanna Pharmacy North Cairns","Brand":"gingerpeople","Status":null,"Address":"355 Sheridan Street ","State":"QLD","Locality":"NORTH CAIRNS","Zip":"4870","Country":"au","PhoneNumbers":["07 4031 4222"],"Website":"","Emails":[""],"Latitude":"-16.9045201","Longitude":"145.7578986","scrape_datetime":1665254702140,"scrape_domain":"au.gingerpeople.com","scrape_store_name":"gingerpeople"},{"Name":"Cannons IGA Googong","Brand":"gingerpeople","Status":null,"Address":"North Village Centre Cnr Caragh & Aprasia Avenue","State":"NSW","Locality":"GOOGONG","Zip":"2620","Country":"au","PhoneNumbers":[""],"Website":"","Emails":[""],"Latitude":"-35.4218446","Longitude":"149.2363832","scrape_datetime":1665254702140,"scrape_domain":"au.gingerpeople.com","scrape_store_name":"gingerpeople"},{"Name":"Carillon Compounding Pharmacy","Brand":"gingerpeople","Status":null,"Address":"Shop 2-3 100 Carillon Avenue","State":"NSW","Locality":"NEWTOWN","Zip":"2042","Country":"au","PhoneNumbers":["02 9519 4247"],"Website":"","Emails":[""],"Latitude":"-33.8916757","Longitude":"151.1834304","scrape_datetime":1665254702140,"scrape_domain":"au.gingerpeople.com","scrape_store_name":"gingerpeople"},{"Name":"Carine Health","Brand":"gingerpeople","Status":null,"Address":"Shop 20 Carine Glades SC 475 Beach Road","State":"WA","Locality":"DUNCRAIG","Zip":"6023","Country":"au","PhoneNumbers":["08 9447 9933"],"Website":"","Emails":[""],"Latitude":"-31.8452573","Longitude":"115.7865487","scrape_datetime":1665254702140,"scrape_domain":"au.gingerpeople.com","scrape_store_name":"gingerpeople"},{"Name":"Carnegie IGA Plus Liquor","Brand":"gingerpeople","Status":null,"Address":"14-22 Woorayl Street ","State":"VIC","Locality":"CARNEGIE","Zip":"3163","Country":"au","PhoneNumbers":["03 8677 7482"],"Website":"","Emails":[""],"Latitude":"-37.8856512","Longitude":"145.0584183","scrape_datetime":1665254702140,"scrape_domain":"au.gingerpeople.com","scrape_store_name":"gingerpeople"},{"Name":"Casuarina Health & Lifestyle Pharmacy","Brand":"gingerpeople","Status":null,"Address":"Shop 10 Casuarina Town Centre 482 Casuarina Way","State":"NSW","Locality":"CASUARINA","Zip":"2487","Country":"au","PhoneNumbers":["02 6674 0735"],"Website":"","Emails":[""],"Latitude":"-28.2974421","Longitude":"153.570628","scrape_datetime":1665254702140,"scrape_domain":"au.gingerpeople.com","scrape_store_name":"gingerpeople"},{"Name":"CBD Pharmacy","Brand":"gingerpeople","Status":null,"Address":"92 Pitt Street ","State":"NSW","Locality":"SYDNEY","Zip":"2000","Country":"au","PhoneNumbers":["02 9221 0091"],"Website":"","Emails":[""],"Latitude":"-33.8671912","Longitude":"151.208819","scrape_datetime":1665254702140,"scrape_domain":"au.gingerpeople.com","scrape_store_name":"gingerpeople"},{"Name":"Ceduna Foodland","Brand":"gingerpeople","Status":null,"Address":"48 Poynton St ","State":"SA","Locality":"CEDUNA","Zip":"5690","Country":"au","PhoneNumbers":["08 8628 7900"],"Website":"","Emails":[""],"Latitude":"-32.1253985","Longitude":"133.6744665","scrape_datetime":1665254702140,"scrape_domain":"au.gingerpeople.com","scrape_store_name":"gingerpeople"},{"Name":"Central Health Foods","Brand":"gingerpeople","Status":null,"Address":"Shop 1098 Grand Central S\/C? Margaret Street?","State":"QLD?","Locality":"TOOWOOMBA?","Zip":"4350","Country":"au","PhoneNumbers":["07 4638 4488"],"Website":"","Emails":[""],"Latitude":"-27.5607675","Longitude":"151.9497866","scrape_datetime":1665254702140,"scrape_domain":"au.gingerpeople.com","scrape_store_name":"gingerpeople"},{"Name":"Ceres Organic Grocery Store","Brand":"gingerpeople","Status":null,"Address":"Environmental Park Cnr Roberts & Stewarts Streets","State":"VIC","Locality":"BRUNSWICK EAST","Zip":"3057","Country":"au","PhoneNumbers":["03 9389 0121"],"Website":"","Emails":[""],"Latitude":"-37.7656571","Longitude":"144.9825388","scrape_datetime":1665254702140,"scrape_domain":"au.gingerpeople.com","scrape_store_name":"gingerpeople"},{"Name":"Cha Cha Chocolate","Brand":"gingerpeople","Status":null,"Address":"84 Bourbong Street ","State":"QLD","Locality":"BUNDABERG","Zip":"4670","Country":"au","PhoneNumbers":[""],"Website":"","Emails":[""],"Latitude":"-24.8655977","Longitude":"152.3518861","scrape_datetime":1665254702140,"scrape_domain":"au.gingerpeople.com","scrape_store_name":"gingerpeople"},{"Name":"Chapman IGA","Brand":"gingerpeople","Status":null,"Address":"Shop 6? 52-60 Perry Drive?","State":"ACT?","Locality":"CHAPMAN?","Zip":"2611","Country":"au","PhoneNumbers":["02 6288 5858"],"Website":"","Emails":[""],"Latitude":"-35.3556311","Longitude":"149.0405469","scrape_datetime":1665254702140,"scrape_domain":"au.gingerpeople.com","scrape_store_name":"gingerpeople"},{"Name":"Chemistworks Broadway","Brand":"gingerpeople","Status":null,"Address":"Shop G\/20a Broadway S\/C 1 Bay Street","State":"NSW","Locality":"BROADWAY","Zip":"2007","Country":"au","PhoneNumbers":["02 9212 4377"],"Website":"","Emails":[""],"Latitude":"-33.8837013","Longitude":"151.1943992","scrape_datetime":1665254702140,"scrape_domain":"au.gingerpeople.com","scrape_store_name":"gingerpeople"},{"Name":"Chemistworks Glendale","Brand":"gingerpeople","Status":null,"Address":"Shop 22 Stockland S\/C Lake Road","State":"NSW","Locality":"GLENDALE","Zip":"2285","Country":"au","PhoneNumbers":["02 4956 5644"],"Website":"","Emails":[""],"Latitude":"-32.9321062","Longitude":"151.6395651","scrape_datetime":1665254702140,"scrape_domain":"au.gingerpeople.com","scrape_store_name":"gingerpeople"},{"Name":"Chemistworks Wetherill Park","Brand":"gingerpeople","Status":null,"Address":"Shop MM05 Stockland 561 Polding Street","State":"NSW","Locality":"WETHERILL PARK","Zip":"2164","Country":"au","PhoneNumbers":["02 9609 7239"],"Website":"","Emails":[""],"Latitude":"-33.8587268","Longitude":"150.899632","scrape_datetime":1665254702140,"scrape_domain":"au.gingerpeople.com","scrape_store_name":"gingerpeople"},{"Name":"Chifley Supermarket","Brand":"gingerpeople","Status":null,"Address":"20-22 Chifley Place ","State":"ACT","Locality":"CHIFLEY","Zip":"2606","Country":"au","PhoneNumbers":[""],"Website":"","Emails":[""],"Latitude":"-35.3522812","Longitude":"149.07627","scrape_datetime":1665254702140,"scrape_domain":"au.gingerpeople.com","scrape_store_name":"gingerpeople"},{"Name":"Chirnside Park Health & Wellbeing","Brand":"gingerpeople","Status":null,"Address":"Shop 501 A Chirnside Park S\/C ","State":"VIC","Locality":"CHIRNSIDE PARK","Zip":"3116","Country":"au","PhoneNumbers":["03 9726 9880"],"Website":"","Emails":[""],"Latitude":"-37.756851","Longitude":"145.3126568","scrape_datetime":1665254702140,"scrape_domain":"au.gingerpeople.com","scrape_store_name":"gingerpeople"},{"Name":"City Organics","Brand":"gingerpeople","Status":null,"Address":"34 Criterion Street ","State":"TAS","Locality":"HOBART","Zip":"7000","Country":"au","PhoneNumbers":["03 6231 1465"],"Website":"","Emails":[""],"Latitude":"-42.8813818","Longitude":"147.3256107","scrape_datetime":1665254702140,"scrape_domain":"au.gingerpeople.com","scrape_store_name":"gingerpeople"},{"Name":"Clay Health & Organics","Brand":"gingerpeople","Status":null,"Address":"719-721 Rathdowne Street ","State":"VIC","Locality":"CARLTON NORTH","Zip":"3054","Country":"au","PhoneNumbers":["03 9349 3957"],"Website":"","Emails":[""],"Latitude":"-37.7880413","Longitude":"144.9718428","scrape_datetime":1665254702140,"scrape_domain":"au.gingerpeople.com","scrape_store_name":"gingerpeople"},{"Name":"Clove Organics","Brand":"gingerpeople","Status":null,"Address":"121a Eighth Street ","State":"VIC","Locality":"MILDURA","Zip":"3500","Country":"au","PhoneNumbers":["03 5021 2230"],"Website":"","Emails":[""],"Latitude":"-34.1858784","Longitude":"142.163262","scrape_datetime":1665254702140,"scrape_domain":"au.gingerpeople.com","scrape_store_name":"gingerpeople"},{"Name":"Coburg Health Shop","Brand":"gingerpeople","Status":null,"Address":"5\/461 Sydney Road ","State":"VIC","Locality":"COBURG","Zip":"3058","Country":"au","PhoneNumbers":["03 9354 8007"],"Website":"","Emails":[""],"Latitude":"-37.742572","Longitude":"144.9661885","scrape_datetime":1665254702140,"scrape_domain":"au.gingerpeople.com","scrape_store_name":"gingerpeople"},{"Name":"Coco's Wealth of Health","Brand":"gingerpeople","Status":null,"Address":"2\/936 Anzac Parade ","State":"NSW","Locality":"MAROUBRA","Zip":"2035","Country":"au","PhoneNumbers":["02 9349 4689"],"Website":"","Emails":[""],"Latitude":"-33.9432957","Longitude":"151.2402175","scrape_datetime":1665254702140,"scrape_domain":"au.gingerpeople.com","scrape_store_name":"gingerpeople"},{"Name":"Como IGA X-press","Brand":"gingerpeople","Status":null,"Address":"Shop 425 262 Canning Highway","State":"WA","Locality":"COMO","Zip":"6152","Country":"au","PhoneNumbers":["08 9367 2736"],"Website":"","Emails":[""],"Latitude":"-31.9898439","Longitude":"115.8703367","scrape_datetime":1665254702140,"scrape_domain":"au.gingerpeople.com","scrape_store_name":"gingerpeople"},{"Name":"Complete Health Foods","Brand":"gingerpeople","Status":null,"Address":"20 Palmerston Street ","State":"VIC","Locality":"WARRAGUL","Zip":"3820","Country":"au","PhoneNumbers":["03 5623 5271"],"Website":"","Emails":[""],"Latitude":"-38.1616605","Longitude":"145.9311682","scrape_datetime":1665254702140,"scrape_domain":"au.gingerpeople.com","scrape_store_name":"gingerpeople"},{"Name":"Coober Pedy IGA","Brand":"gingerpeople","Status":null,"Address":"28 Hutchison Street ","State":"SA","Locality":"COOBER PEDY","Zip":"5723","Country":"au","PhoneNumbers":[""],"Website":"","Emails":[""],"Latitude":"-29.0090805","Longitude":"134.7560908","scrape_datetime":1665254702140,"scrape_domain":"au.gingerpeople.com","scrape_store_name":"gingerpeople"},{"Name":"Coode Newsagency & Convenience Store","Brand":"gingerpeople","Status":null,"Address":"3\/135A Coode Street ","State":"WA","Locality":"SOUTH PERTH","Zip":"6151","Country":"au","PhoneNumbers":[""],"Website":"","Emails":[""],"Latitude":"-31.98821","Longitude":"115.862","scrape_datetime":1665254702140,"scrape_domain":"au.gingerpeople.com","scrape_store_name":"gingerpeople"},{"Name":"Cooroy Supa IGA","Brand":"gingerpeople","Status":null,"Address":"3 Emerald Street? ","State":"QLD?","Locality":"COOROY?","Zip":"4563","Country":"au","PhoneNumbers":["07 5447 6061"],"Website":"","Emails":[""],"Latitude":"-26.4168751","Longitude":"152.9090998","scrape_datetime":1665254702140,"scrape_domain":"au.gingerpeople.com","scrape_store_name":"gingerpeople"},{"Name":"Cos Cheltenham Organic Store","Brand":"gingerpeople","Status":null,"Address":"13-360 Reserve Road ","State":"VIC","Locality":"CHELTENHAM","Zip":"3192","Country":"au","PhoneNumbers":["03 9583 8754"],"Website":"","Emails":[""],"Latitude":"-37.9902582","Longitude":"145.0318661","scrape_datetime":1665254702140,"scrape_domain":"au.gingerpeople.com","scrape_store_name":"gingerpeople"},{"Name":"Cranes Pharmacy","Brand":"gingerpeople","Status":null,"Address":"62 Avenue Road ","State":"NSW","Locality":"MOSMAN","Zip":"2088","Country":"au","PhoneNumbers":[""],"Website":"","Emails":[""],"Latitude":"-33.8316536","Longitude":"151.2385912","scrape_datetime":1665254702140,"scrape_domain":"au.gingerpeople.com","scrape_store_name":"gingerpeople"},{"Name":"Cremorne Town Centre Pharmacy","Brand":"gingerpeople","Status":null,"Address":"Shop 4-5 287 Military Road","State":"NSW","Locality":"CREMORNE","Zip":"2090","Country":"au","PhoneNumbers":["02 9908 1155"],"Website":"","Emails":[""],"Latitude":"-33.8287612","Longitude":"151.2296291","scrape_datetime":1665254702140,"scrape_domain":"au.gingerpeople.com","scrape_store_name":"gingerpeople"},{"Name":"Cut Price Pharmaceutical Wholesaler","Brand":"gingerpeople","Status":null,"Address":"Shop 4 & 6 175-181 Oxford St ","State":"NSW","Locality":"BONDI JUNCTION","Zip":"2022","Country":"au","PhoneNumbers":["02 9387 7957"],"Website":"","Emails":[""],"Latitude":"-33.8922456","Longitude":"151.2486699","scrape_datetime":1665254702140,"scrape_domain":"au.gingerpeople.com","scrape_store_name":"gingerpeople"},{"Name":"Dalmeny IGA","Brand":"gingerpeople","Status":null,"Address":"69 Mort Ave ","State":"NSW","Locality":"DALMENY","Zip":"2546","Country":"au","PhoneNumbers":["02 4476 7805"],"Website":"","Emails":[""],"Latitude":"-36.1646386","Longitude":"150.1257567","scrape_datetime":1665254702140,"scrape_domain":"au.gingerpeople.com","scrape_store_name":"gingerpeople"},{"Name":"Danks Street Pharmacy","Brand":"gingerpeople","Status":null,"Address":"Shop 7\/1 Crystal Street ","State":"NSW","Locality":"WATERLOO","Zip":"2017","Country":"au","PhoneNumbers":["02 8093 1663"],"Website":"","Emails":[""],"Latitude":"-33.8978778","Longitude":"151.2129111","scrape_datetime":1665254702140,"scrape_domain":"au.gingerpeople.com","scrape_store_name":"gingerpeople"},{"Name":"Danny's IGA Xpress East Malvern","Brand":"gingerpeople","Status":null,"Address":"177 Waverley Road ","State":"VIC","Locality":"MALVERN EAST","Zip":"3145","Country":"au","PhoneNumbers":[""],"Website":"","Emails":[""],"Latitude":"-37.8761186","Longitude":"145.0508302","scrape_datetime":1665254702140,"scrape_domain":"au.gingerpeople.com","scrape_store_name":"gingerpeople"},{"Name":"Daylesford Health Foods & Organics","Brand":"gingerpeople","Status":null,"Address":"27 Albert Street ","State":"VIC","Locality":"DAYLESFORD","Zip":"3460","Country":"au","PhoneNumbers":[""],"Website":"","Emails":[""],"Latitude":"-37.3412158","Longitude":"144.1419333","scrape_datetime":1665254702140,"scrape_domain":"au.gingerpeople.com","scrape_store_name":"gingerpeople"},{"Name":"De Bakkers","Brand":"gingerpeople","Status":null,"Address":"34 Rubyvale Road ","State":"QLD","Locality":"CLERMONT","Zip":"4721","Country":"au","PhoneNumbers":[""],"Website":"","Emails":[""],"Latitude":"-22.8483257","Longitude":"147.6101206","scrape_datetime":1665254702140,"scrape_domain":"au.gingerpeople.com","scrape_store_name":"gingerpeople"},{"Name":"Deakin IGA Supermarket","Brand":"gingerpeople","Status":null,"Address":"2 to 4 Duff Place? ","State":"ACT?","Locality":"DEAKIN?","Zip":"2600","Country":"au","PhoneNumbers":["02 6281 2182"],"Website":"","Emails":[""],"Latitude":"-35.3150666","Longitude":"149.1079658","scrape_datetime":1665254702140,"scrape_domain":"au.gingerpeople.com","scrape_store_name":"gingerpeople"},{"Name":"Denman Village IGA","Brand":"gingerpeople","Status":null,"Address":"20\/3 Felstead Vista Denman Prospect","State":"ACT","Locality":"COOMBS","Zip":"2611","Country":"au","PhoneNumbers":["02 9131 2290"],"Website":"","Emails":[""],"Latitude":"-35.2994328","Longitude":"149.0232588","scrape_datetime":1665254702140,"scrape_domain":"au.gingerpeople.com","scrape_store_name":"gingerpeople"},{"Name":"Des's Health Foods ( Hlth Ess Maitland )","Brand":"gingerpeople","Status":null,"Address":"Shop 12 Pender Place S\/C Church Street","State":"NSW","Locality":"MAITLAND","Zip":"2320","Country":"au","PhoneNumbers":["02 4933 1718"],"Website":"","Emails":[""],"Latitude":"-32.7341092","Longitude":"151.5541635","scrape_datetime":1665254702140,"scrape_domain":"au.gingerpeople.com","scrape_store_name":"gingerpeople"},{"Name":"Develin City Chemist","Brand":"gingerpeople","Status":null,"Address":"Shop 3 4 Garema Place","State":"ACT","Locality":"CANBERRA","Zip":"2601","Country":"au","PhoneNumbers":["02 6248 5250"],"Website":"","Emails":[""],"Latitude":"-35.2787013","Longitude":"149.1319424","scrape_datetime":1665254702140,"scrape_domain":"au.gingerpeople.com","scrape_store_name":"gingerpeople"},{"Name":"Dino's IGA Mullumbimby","Brand":"gingerpeople","Status":null,"Address":"62 Burringbar Street ","State":"NSW","Locality":"MULLUMBIMBY","Zip":"2482","Country":"au","PhoneNumbers":["02 6684 2207"],"Website":"","Emails":[""],"Latitude":"-28.5530957","Longitude":"153.5015514","scrape_datetime":1665254702140,"scrape_domain":"au.gingerpeople.com","scrape_store_name":"gingerpeople"},{"Name":"Direct Chemist Outlet Emerald","Brand":"gingerpeople","Status":null,"Address":"2 - 10 Codenwarra Road ","State":"QLD","Locality":"EMERALD","Zip":"4720","Country":"au","PhoneNumbers":["07 4982 0666"],"Website":"","Emails":[""],"Latitude":"-23.5340515","Longitude":"148.1751272","scrape_datetime":1665254702140,"scrape_domain":"au.gingerpeople.com","scrape_store_name":"gingerpeople"},{"Name":"Discount Vitamins Bondi","Brand":"gingerpeople","Status":null,"Address":"76 Bronte Rd ","State":"NSW","Locality":"BONDI JUNCTION","Zip":"2022","Country":"au","PhoneNumbers":["02 9369 1113"],"Website":"","Emails":[""],"Latitude":"-33.8946806","Longitude":"151.2505199","scrape_datetime":1665254702140,"scrape_domain":"au.gingerpeople.com","scrape_store_name":"gingerpeople"},{"Name":"Discount Vitamins Dee Why","Brand":"gingerpeople","Status":null,"Address":"681 Pittwater Road ","State":"NSW","Locality":"DEE WHY","Zip":"2099","Country":"au","PhoneNumbers":["02 9984 7536"],"Website":"","Emails":[""],"Latitude":"-33.7533073","Longitude":"151.2853221","scrape_datetime":1665254702140,"scrape_domain":"au.gingerpeople.com","scrape_store_name":"gingerpeople"},{"Name":"Domain Road Pharmacy","Brand":"gingerpeople","Status":null,"Address":"185 Domain Road ","State":"VIC","Locality":"SOUTH YARRA","Zip":"3141","Country":"au","PhoneNumbers":["03 9866 2634"],"Website":"","Emails":[""],"Latitude":"-37.834283","Longitude":"144.982283","scrape_datetime":1665254702140,"scrape_domain":"au.gingerpeople.com","scrape_store_name":"gingerpeople"},{"Name":"Donges SUPA IGA","Brand":"gingerpeople","Status":null,"Address":"159 Boorowa Street ","State":"NSW","Locality":"YOUNG","Zip":"2594","Country":"au","PhoneNumbers":["02 6382 2443"],"Website":"","Emails":[""],"Latitude":"-34.3126743","Longitude":"148.2958628","scrape_datetime":1665254702140,"scrape_domain":"au.gingerpeople.com","scrape_store_name":"gingerpeople"},{"Name":"Doorstep Organics","Brand":"gingerpeople","Status":null,"Address":"48A-54 Chapel Street ","State":"NSW","Locality":"MARRICKVILLE","Zip":"2204","Country":"au","PhoneNumbers":["02 8399 1666"],"Website":"","Emails":[""],"Latitude":"-33.907482","Longitude":"151.1649396","scrape_datetime":1665254702140,"scrape_domain":"au.gingerpeople.com","scrape_store_name":"gingerpeople"},{"Name":"Dr Earth Neutral Bay","Brand":"gingerpeople","Status":null,"Address":"Shop 5-6 17 Young Street","State":"NSW","Locality":"NEUTRAL BAY","Zip":"2089","Country":"au","PhoneNumbers":["02 9212 5533"],"Website":"","Emails":[""],"Latitude":"-33.8305073","Longitude":"151.2217869","scrape_datetime":1665254702140,"scrape_domain":"au.gingerpeople.com","scrape_store_name":"gingerpeople"},{"Name":"Dr Earth Newtown","Brand":"gingerpeople","Status":null,"Address":"Rear of 287 to 289 King Street First off Mary Street","State":"NSW","Locality":"NEWTOWN","Zip":"2042","Country":"au","PhoneNumbers":["02 9550 2554"],"Website":"","Emails":[""],"Latitude":"-33.8963912","Longitude":"151.1796568","scrape_datetime":1665254702140,"scrape_domain":"au.gingerpeople.com","scrape_store_name":"gingerpeople"},{"Name":"Drakes Aldinga Foodland","Brand":"gingerpeople","Status":null,"Address":"Aldinga Central SC - Cnr Pridham Blvd & Aldinga Bch Rd","State":"SA","Locality":"ALDINGA","Zip":"5173","Country":"au","PhoneNumbers":["08 8557 2000"],"Website":"","Emails":[""],"Latitude":"-35.278039","Longitude":"138.460612","scrape_datetime":1665254702140,"scrape_domain":"au.gingerpeople.com","scrape_store_name":"gingerpeople"},{"Name":"Drakes Allenby Gardens Foodland","Brand":"gingerpeople","Status":null,"Address":"612 Port Road ","State":"SA","Locality":"ALLENBY GARDENS","Zip":"5009","Country":"au","PhoneNumbers":["08 8116 3800"],"Website":"","Emails":[""],"Latitude":"-34.8923819","Longitude":"138.5513983","scrape_datetime":1665254702140,"scrape_domain":"au.gingerpeople.com","scrape_store_name":"gingerpeople"},{"Name":"Drakes Angle Vale Foodland","Brand":"gingerpeople","Status":null,"Address":"Shop 1\/ 121-129 Heaslip Rd ","State":"SA","Locality":"ANGLE VALE","Zip":"5117","Country":"au","PhoneNumbers":["08 8256 5000"],"Website":"","Emails":[""],"Latitude":"-34.6473924","Longitude":"138.6426923","scrape_datetime":1665254702140,"scrape_domain":"au.gingerpeople.com","scrape_store_name":"gingerpeople"},{"Name":"Drakes Ashmore","Brand":"gingerpeople","Status":null,"Address":"Ashmore City S\/C Currumburra Rd& Nerang Street","State":"QLD","Locality":"ASHMORE","Zip":"4214","Country":"au","PhoneNumbers":["07 5585 6000"],"Website":"","Emails":[""],"Latitude":"-27.9780639","Longitude":"153.3808068","scrape_datetime":1665254702140,"scrape_domain":"au.gingerpeople.com","scrape_store_name":"gingerpeople"},{"Name":"Drakes Blackwood Foodland","Brand":"gingerpeople","Status":null,"Address":"240 Main Road ","State":"SA","Locality":"BLACKWOOD","Zip":"5051","Country":"au","PhoneNumbers":["08 8178 3000"],"Website":"","Emails":[""],"Latitude":"-35.0201768","Longitude":"138.6160635","scrape_datetime":1665254702140,"scrape_domain":"au.gingerpeople.com","scrape_store_name":"gingerpeople"},{"Name":"Drakes Castle Plaza Foodland","Brand":"gingerpeople","Status":null,"Address":"992 South Road ","State":"SA","Locality":"EDWARDSTOWN","Zip":"5039","Country":"au","PhoneNumbers":["08 8172 4000"],"Website":"","Emails":[""],"Latitude":"-34.9815149","Longitude":"138.5725094","scrape_datetime":1665254702140,"scrape_domain":"au.gingerpeople.com","scrape_store_name":"gingerpeople"},{"Name":"Drakes Chinchilla","Brand":"gingerpeople","Status":null,"Address":"Shop 8 44 Middle Street","State":"QLD","Locality":"CHINCHILLA","Zip":"4413","Country":"au","PhoneNumbers":["07 4672 6300"],"Website":"","Emails":[""],"Latitude":"-26.7420799","Longitude":"150.6237464","scrape_datetime":1665254702140,"scrape_domain":"au.gingerpeople.com","scrape_store_name":"gingerpeople"},{"Name":"Drakes Findon Foodland","Brand":"gingerpeople","Status":null,"Address":"303 Grange Road ","State":"SA","Locality":"FINDON","Zip":"5023","Country":"au","PhoneNumbers":["08 8219 8300"],"Website":"","Emails":[""],"Latitude":"-34.9049847","Longitude":"138.5302118","scrape_datetime":1665254702140,"scrape_domain":"au.gingerpeople.com","scrape_store_name":"gingerpeople"},{"Name":"Drakes Gawler Foodland","Brand":"gingerpeople","Status":null,"Address":"Cnr Reid & Jacob Streets ","State":"SA","Locality":"GAWLER","Zip":"5118","Country":"au","PhoneNumbers":["08 8526 9000"],"Website":"","Emails":[""],"Latitude":"-34.5981574","Longitude":"138.7472153","scrape_datetime":1665254702140,"scrape_domain":"au.gingerpeople.com","scrape_store_name":"gingerpeople"},{"Name":"Drakes Glenmore","Brand":"gingerpeople","Status":null,"Address":"309-315 Farm Street ","State":"QLD","Locality":"ROCKHAMPTON","Zip":"4700","Country":"au","PhoneNumbers":["07 4923 4900"],"Website":"","Emails":[""],"Latitude":"-23.3336094","Longitude":"150.5202404","scrape_datetime":1665254702140,"scrape_domain":"au.gingerpeople.com","scrape_store_name":"gingerpeople"},{"Name":"Drakes Golden Grove Foodland","Brand":"gingerpeople","Status":null,"Address":"Cnr Grove Way & Golden Grove ","State":"SA","Locality":"GOLDEN GROVE","Zip":"5125","Country":"au","PhoneNumbers":["08 8288 5000"],"Website":"","Emails":[""],"Latitude":"-34.7904986","Longitude":"138.6973721","scrape_datetime":1665254702140,"scrape_domain":"au.gingerpeople.com","scrape_store_name":"gingerpeople"},{"Name":"Drakes Gympie","Brand":"gingerpeople","Status":null,"Address":"Cnr Reef & Monkland Roads ","State":"QLD","Locality":"GYMPIE","Zip":"4570","Country":"au","PhoneNumbers":["07 5489 5200"],"Website":"","Emails":[""],"Latitude":"-26.1898844","Longitude":"152.6591202","scrape_datetime":1665254702140,"scrape_domain":"au.gingerpeople.com","scrape_store_name":"gingerpeople"},{"Name":"Drakes Hallet Cove Foodland","Brand":"gingerpeople","Status":null,"Address":"Cnr Ramrod Ave & Lonsdale Rd ","State":"SA","Locality":"HALLETT COVE","Zip":"5158","Country":"au","PhoneNumbers":["08 8321 8100"],"Website":"","Emails":[""],"Latitude":"-35.0778194","Longitude":"138.5188147","scrape_datetime":1665254702140,"scrape_domain":"au.gingerpeople.com","scrape_store_name":"gingerpeople"},{"Name":"Drakes Hollywell Road Market","Brand":"gingerpeople","Status":null,"Address":"Metro Market S\/C 33 Hollywell Road","State":"QLD","Locality":"BIGGERA WATERS","Zip":"4216","Country":"au","PhoneNumbers":["07 5537 3101"],"Website":"","Emails":[""],"Latitude":"-27.9327693","Longitude":"153.400266","scrape_datetime":1665254702140,"scrape_domain":"au.gingerpeople.com","scrape_store_name":"gingerpeople"},{"Name":"Drakes Hope Valley Foodland","Brand":"gingerpeople","Status":null,"Address":"1220 Grand Junction Road ","State":"SA","Locality":"HOPE VALLEY","Zip":"5090","Country":"au","PhoneNumbers":["08 8397 4500"],"Website":"","Emails":[""],"Latitude":"-34.8438972","Longitude":"138.7000871","scrape_datetime":1665254702140,"scrape_domain":"au.gingerpeople.com","scrape_store_name":"gingerpeople"},{"Name":"Drakes McDowall","Brand":"gingerpeople","Status":null,"Address":"McDowall Village Shop 467 109 Beckett Road","State":"QLD","Locality":"MCDOWALL","Zip":"4053","Country":"au","PhoneNumbers":["07 3550 6000"],"Website":"","Emails":[""],"Latitude":"-27.3801238","Longitude":"152.9902503","scrape_datetime":1665254702140,"scrape_domain":"au.gingerpeople.com","scrape_store_name":"gingerpeople"},{"Name":"Drakes Newton Foodland","Brand":"gingerpeople","Status":null,"Address":"Cnr Newton & George Rd ","State":"SA","Locality":"NEWTON","Zip":"5074","Country":"au","PhoneNumbers":["08 8165 6000"],"Website":"","Emails":[""],"Latitude":"-34.8763908","Longitude":"138.6712096","scrape_datetime":1665254702140,"scrape_domain":"au.gingerpeople.com","scrape_store_name":"gingerpeople"},{"Name":"Drakes North Haven Foodland","Brand":"gingerpeople","Status":null,"Address":"10\/ 46-56 Osbourne Rd ","State":"SA","Locality":"NORTH HAVEN","Zip":"5018","Country":"au","PhoneNumbers":["08 8249 7000"],"Website":"","Emails":[""],"Latitude":"-34.793416","Longitude":"138.4981344","scrape_datetime":1665254702140,"scrape_domain":"au.gingerpeople.com","scrape_store_name":"gingerpeople"},{"Name":"Drakes Rochedale","Brand":"gingerpeople","Status":null,"Address":"Rochedale Shopping Village 549 Underwood Road","State":"QLD","Locality":"ROCHEDALE","Zip":"4123","Country":"au","PhoneNumbers":["07 3714 7000"],"Website":"","Emails":[""],"Latitude":"-27.5965821","Longitude":"153.124684","scrape_datetime":1665254702140,"scrape_domain":"au.gingerpeople.com","scrape_store_name":"gingerpeople"},{"Name":"Drakes Samford","Brand":"gingerpeople","Status":null,"Address":"Samford Village S\/C Main Street","State":"QLD","Locality":"SAMFORD","Zip":"4520","Country":"au","PhoneNumbers":["07 3298 3000"],"Website":"","Emails":[""],"Latitude":"-27.370636","Longitude":"152.8870747","scrape_datetime":1665254702140,"scrape_domain":"au.gingerpeople.com","scrape_store_name":"gingerpeople"},{"Name":"Drakes Seaford Foodland","Brand":"gingerpeople","Status":null,"Address":"Cnr Commercial Rd & The Parade ","State":"SA","Locality":"SEAFORD","Zip":"5169","Country":"au","PhoneNumbers":["08 8386 4000"],"Website":"","Emails":[""],"Latitude":"-35.1913873","Longitude":"138.4776143","scrape_datetime":1665254702140,"scrape_domain":"au.gingerpeople.com","scrape_store_name":"gingerpeople"},{"Name":"Drakes Sun Valley","Brand":"gingerpeople","Status":null,"Address":"85 Sun Valley Road ","State":"QLD","Locality":"SUN VALLEY","Zip":"4680","Country":"au","PhoneNumbers":["07 4977 9500"],"Website":"","Emails":[""],"Latitude":"-23.8807866","Longitude":"151.2512072","scrape_datetime":1665254702140,"scrape_domain":"au.gingerpeople.com","scrape_store_name":"gingerpeople"},{"Name":"Drakes Toowoomba","Brand":"gingerpeople","Status":null,"Address":"Cnr Meibusch & High Street ","State":"QLD","Locality":"TOOWOOMBA","Zip":"4350","Country":"au","PhoneNumbers":["07 4613 7700"],"Website":"","Emails":[""],"Latitude":"-27.5853126","Longitude":"151.9778963","scrape_datetime":1665254702140,"scrape_domain":"au.gingerpeople.com","scrape_store_name":"gingerpeople"},{"Name":"Drakes Torrensville Foodland","Brand":"gingerpeople","Status":null,"Address":"159 Henley Bech Road ","State":"SA","Locality":"TORRENSVILLE","Zip":"5031","Country":"au","PhoneNumbers":["08 8152 6100"],"Website":"","Emails":[""],"Latitude":"-34.9246278","Longitude":"138.5619572","scrape_datetime":1665254702140,"scrape_domain":"au.gingerpeople.com","scrape_store_name":"gingerpeople"},{"Name":"Drouin Health Barn","Brand":"gingerpeople","Status":null,"Address":"49A Princes Way ","State":"VIC","Locality":"DROUIN","Zip":"3818","Country":"au","PhoneNumbers":["03 5625 4344"],"Website":"","Emails":[""],"Latitude":"-38.1362025","Longitude":"145.8576931","scrape_datetime":1665254702140,"scrape_domain":"au.gingerpeople.com","scrape_store_name":"gingerpeople"},{"Name":"Dunn & Walton","Brand":"gingerpeople","Status":null,"Address":"Shop 8 257 Scarbourough Beach Road","State":"WA","Locality":"DOUBLEVIEW","Zip":"6018","Country":"au","PhoneNumbers":["08 9242 7711"],"Website":"","Emails":[""],"Latitude":"-31.8966913","Longitude":"115.7834081","scrape_datetime":1665254702140,"scrape_domain":"au.gingerpeople.com","scrape_store_name":"gingerpeople"},{"Name":"Dunsborough Home of Health","Brand":"gingerpeople","Status":null,"Address":"Shop 28d 55 Dunn Bay Road","State":"WA","Locality":"DUNSBOROUGH","Zip":"6281","Country":"au","PhoneNumbers":[""],"Website":"","Emails":[""],"Latitude":"-33.6157441","Longitude":"115.1053495","scrape_datetime":1665254702140,"scrape_domain":"au.gingerpeople.com","scrape_store_name":"gingerpeople"},{"Name":"Eadie Organic Wholefoods Market","Brand":"gingerpeople","Status":null,"Address":"53 Wills Road ","State":"NSW","Locality":"WOOLOOWARE","Zip":"2230","Country":"au","PhoneNumbers":["02 9134 9499"],"Website":"","Emails":[""],"Latitude":"-34.0458427","Longitude":"151.1447232","scrape_datetime":1665254702140,"scrape_domain":"au.gingerpeople.com","scrape_store_name":"gingerpeople"},{"Name":"Earth Wholefood","Brand":"gingerpeople","Status":null,"Address":"3\/25 Delage Street ","State":"WA","Locality":"JOONDALUP","Zip":"6027","Country":"au","PhoneNumbers":[""],"Website":"","Emails":[""],"Latitude":"-31.745566","Longitude":"115.7604319","scrape_datetime":1665254702140,"scrape_domain":"au.gingerpeople.com","scrape_store_name":"gingerpeople"},{"Name":"Eastfield Natural Foods","Brand":"gingerpeople","Status":null,"Address":"41 The Mall ","State":"VIC","Locality":"CROYDON SOUTH","Zip":"3136","Country":"au","PhoneNumbers":["03 9723 5589"],"Website":"","Emails":[""],"Latitude":"-37.8119195","Longitude":"145.270102","scrape_datetime":1665254702140,"scrape_domain":"au.gingerpeople.com","scrape_store_name":"gingerpeople"},{"Name":"Eco Farms Pty Ltd","Brand":"gingerpeople","Status":null,"Address":"167 Parramatta Road ","State":"NSW","Locality":"HOMEBUSH","Zip":"2140","Country":"au","PhoneNumbers":["02 9764 2833"],"Website":"","Emails":[""],"Latitude":"-33.8603011","Longitude":"151.0764641","scrape_datetime":1665254702140,"scrape_domain":"au.gingerpeople.com","scrape_store_name":"gingerpeople"},{"Name":"Eco Shop","Brand":"gingerpeople","Status":null,"Address":"Shop 3 The Gateway Centre Main Street","State":"NSW","Locality":"MITTAGONG","Zip":"2575","Country":"au","PhoneNumbers":["02 4872 1891"],"Website":"","Emails":[""],"Latitude":"-34.4505929","Longitude":"150.4491175","scrape_datetime":1665254702140,"scrape_domain":"au.gingerpeople.com","scrape_store_name":"gingerpeople"},{"Name":"Eco Wild Health Food & Organics Wauchope","Brand":"gingerpeople","Status":null,"Address":"21b High St ","State":"NSW","Locality":"WAUCHOPE","Zip":"2446","Country":"au","PhoneNumbers":["02 6585 2424"],"Website":"","Emails":[""],"Latitude":"-31.4571723","Longitude":"152.7335289","scrape_datetime":1665254702140,"scrape_domain":"au.gingerpeople.com","scrape_store_name":"gingerpeople"},{"Name":"Eight Mile Plains Discount Drug Store","Brand":"gingerpeople","Status":null,"Address":"Shop 23 261 Warrigal Rd Cnr Underwood Rd","State":"QLD","Locality":"EIGHT MILE PLAINS","Zip":"4113","Country":"au","PhoneNumbers":["07 3341 7700"],"Website":"","Emails":[""],"Latitude":"-27.5897466","Longitude":"153.0860182","scrape_datetime":1665254702140,"scrape_domain":"au.gingerpeople.com","scrape_store_name":"gingerpeople"},{"Name":"Eliza Health Food & Gifts","Brand":"gingerpeople","Status":null,"Address":"12\/89 Mt Eliza Way ","State":"VIC","Locality":"MOUNT ELIZA","Zip":"3930","Country":"au","PhoneNumbers":["03 9775 2611"],"Website":"","Emails":[""],"Latitude":"-38.1850664","Longitude":"145.0895329","scrape_datetime":1665254702140,"scrape_domain":"au.gingerpeople.com","scrape_store_name":"gingerpeople"},{"Name":"Elwood Pharmacy","Brand":"gingerpeople","Status":null,"Address":"135 Ormond Road ","State":"VIC","Locality":"ELWOOD","Zip":"3184","Country":"au","PhoneNumbers":["03 9525 7663"],"Website":"","Emails":[""],"Latitude":"-37.885868","Longitude":"144.98871","scrape_datetime":1665254702140,"scrape_domain":"au.gingerpeople.com","scrape_store_name":"gingerpeople"},{"Name":"Emerald Plaza Pharmacy","Brand":"gingerpeople","Status":null,"Address":"Shop 13 Emerald Plaza Market 144 Egerton Street","State":"QLD","Locality":"EMERALD","Zip":"4720","Country":"au","PhoneNumbers":["07 4982 1164"],"Website":"","Emails":[""],"Latitude":"-23.528046","Longitude":"148.164488","scrape_datetime":1665254702140,"scrape_domain":"au.gingerpeople.com","scrape_store_name":"gingerpeople"},{"Name":"Essence Wholefood Supermarket","Brand":"gingerpeople","Status":null,"Address":"Shop 3\/303 Byrnes Street ","State":"QLD","Locality":"MAREEBA","Zip":"4880","Country":"au","PhoneNumbers":["07 4092 5905"],"Website":"","Emails":[""],"Latitude":"-17.0036562","Longitude":"145.4245138","scrape_datetime":1665254702140,"scrape_domain":"au.gingerpeople.com","scrape_store_name":"gingerpeople"},{"Name":"Essentially Healthy You Pty Ltd","Brand":"gingerpeople","Status":null,"Address":"2\/157 Dudley Road ","State":"NSW","Locality":"WHITEBRIDGE","Zip":"2290","Country":"au","PhoneNumbers":["02 4943 0984"],"Website":"","Emails":[""],"Latitude":"-32.9787105","Longitude":"151.7083391","scrape_datetime":1665254702140,"scrape_domain":"au.gingerpeople.com","scrape_store_name":"gingerpeople"},{"Name":"Evelyn Faye Nutrition BOURKE Street","Brand":"gingerpeople","Status":null,"Address":"360 Bourke Street ","State":"VIC","Locality":"MELBOURNE","Zip":"3000","Country":"au","PhoneNumbers":["03 9670 1346"],"Website":"","Emails":[""],"Latitude":"-37.8141624","Longitude":"144.9626893","scrape_datetime":1665254702140,"scrape_domain":"au.gingerpeople.com","scrape_store_name":"gingerpeople"},{"Name":"Evelyn Faye Nutrition SOUTH MELBOURNE","Brand":"gingerpeople","Status":null,"Address":"267-269 Clarendon Street ","State":"VIC","Locality":"SOUTH MELBOURNE","Zip":"3205","Country":"au","PhoneNumbers":["03 9686 0086"],"Website":"","Emails":[""],"Latitude":"-37.8322951","Longitude":"144.9605966","scrape_datetime":1665254702140,"scrape_domain":"au.gingerpeople.com","scrape_store_name":"gingerpeople"},{"Name":"Fairlight Pharmacy","Brand":"gingerpeople","Status":null,"Address":"138 Sydney Rd ","State":"NSW","Locality":"FAIRLIGHT","Zip":"2094","Country":"au","PhoneNumbers":["02 9949 1000"],"Website":"","Emails":[""],"Latitude":"-33.7957531","Longitude":"151.277045","scrape_datetime":1665254702140,"scrape_domain":"au.gingerpeople.com","scrape_store_name":"gingerpeople"},{"Name":"Family Life Organics","Brand":"gingerpeople","Status":null,"Address":"Shop 5 238 Woolcock Street ","State":"QLD","Locality":"CURRAJONG","Zip":"4812","Country":"au","PhoneNumbers":[""],"Website":"","Emails":[""],"Latitude":"-19.2705336","Longitude":"146.7776123","scrape_datetime":1665254702140,"scrape_domain":"au.gingerpeople.com","scrape_store_name":"gingerpeople"},{"Name":"Farmer Jacks Ashby","Brand":"gingerpeople","Status":null,"Address":"Ashby Village Shopping Centre 1 Hollosy Way","State":"WA","Locality":"ASHBY","Zip":"6065","Country":"au","PhoneNumbers":[""],"Website":"","Emails":[""],"Latitude":"-31.7311274","Longitude":"115.80439","scrape_datetime":1665254702140,"scrape_domain":"au.gingerpeople.com","scrape_store_name":"gingerpeople"},{"Name":"Farmer Jacks Currambine","Brand":"gingerpeople","Status":null,"Address":"M1 Currambine Shopping Centre 1244 Marmion Avenue","State":"WA","Locality":"CURRAMBINE","Zip":"6028","Country":"au","PhoneNumbers":["08 9304 2815"],"Website":"","Emails":[""],"Latitude":"-31.7411833","Longitude":"115.7387678","scrape_datetime":1665254702140,"scrape_domain":"au.gingerpeople.com","scrape_store_name":"gingerpeople"},{"Name":"Farmer Jacks Gwelup","Brand":"gingerpeople","Status":null,"Address":"706 North Beach Road ","State":"WA","Locality":"GWELUP","Zip":"6018","Country":"au","PhoneNumbers":["08 9244 2392"],"Website":"","Emails":[""],"Latitude":"-31.8757743","Longitude":"115.7963015","scrape_datetime":1665254702140,"scrape_domain":"au.gingerpeople.com","scrape_store_name":"gingerpeople"},{"Name":"Farmer Jacks Halls Head","Brand":"gingerpeople","Status":null,"Address":"1\/20 Peelwood Parade ","State":"WA","Locality":"HALLS HEAD","Zip":"6210","Country":"au","PhoneNumbers":["08 9535 5555"],"Website":"","Emails":[""],"Latitude":"-32.54385","Longitude":"115.68975","scrape_datetime":1665254702140,"scrape_domain":"au.gingerpeople.com","scrape_store_name":"gingerpeople"},{"Name":"Farmer Jacks Joondalup","Brand":"gingerpeople","Status":null,"Address":"Lakeside Joondalup S\/C 420 Joondalup Drive","State":"WA","Locality":"JOONDALUP","Zip":"6027","Country":"au","PhoneNumbers":["08 9300 1455"],"Website":"","Emails":[""],"Latitude":"-31.7435966","Longitude":"115.7673963","scrape_datetime":1665254702140,"scrape_domain":"au.gingerpeople.com","scrape_store_name":"gingerpeople"},{"Name":"Farmer Jacks Landsdale","Brand":"gingerpeople","Status":null,"Address":"Shop 8 Landsdale Forum S\/C The Broad View","State":"WA","Locality":"LANDSDALE","Zip":"6065","Country":"au","PhoneNumbers":[""],"Website":"","Emails":[""],"Latitude":"-31.807728","Longitude":"115.863122","scrape_datetime":1665254702140,"scrape_domain":"au.gingerpeople.com","scrape_store_name":"gingerpeople"},{"Name":"Farmer Jacks Spearwood","Brand":"gingerpeople","Status":null,"Address":"Phoenix Shopping Centre Shop P03\/254 Rockingham Road","State":"WA","Locality":"SPEARWOOD","Zip":"6163","Country":"au","PhoneNumbers":["08 9434 6005"],"Website":"","Emails":[""],"Latitude":"-32.0972575","Longitude":"115.7841305","scrape_datetime":1665254702140,"scrape_domain":"au.gingerpeople.com","scrape_store_name":"gingerpeople"},{"Name":"Farmer Jacks Subiaco","Brand":"gingerpeople","Status":null,"Address":"180 Rokeby Road Crossways Complex","State":"WA","Locality":"SUBIACO","Zip":"6008","Country":"au","PhoneNumbers":["08 9381 2794"],"Website":"","Emails":[""],"Latitude":"-31.9503184","Longitude":"115.8244583","scrape_datetime":1665254702140,"scrape_domain":"au.gingerpeople.com","scrape_store_name":"gingerpeople"},{"Name":"Felixstow Foodland","Brand":"gingerpeople","Status":null,"Address":"6\/471 Payneham Road ","State":"SA","Locality":"FELIXSTOW","Zip":"5070","Country":"au","PhoneNumbers":["08 8337 2945"],"Website":"","Emails":[""],"Latitude":"-34.8896709","Longitude":"138.6540344","scrape_datetime":1665254702140,"scrape_domain":"au.gingerpeople.com","scrape_store_name":"gingerpeople"},{"Name":"Flannerys Benowa","Brand":"gingerpeople","Status":null,"Address":"Shop 14 Bronberg Plaza? Slatyer Avenue?","State":"QLD?","Locality":"BENOWA?","Zip":"4217","Country":"au","PhoneNumbers":["07 5597 4900"],"Website":"","Emails":[""],"Latitude":"-27.995819","Longitude":"153.3993775","scrape_datetime":1665254702140,"scrape_domain":"au.gingerpeople.com","scrape_store_name":"gingerpeople"},{"Name":"Flannerys Chermside","Brand":"gingerpeople","Status":null,"Address":"Cnr Rode & Webster Road? ","State":"QLD?","Locality":"CHERMSIDE?","Zip":"4032","Country":"au","PhoneNumbers":["07 3861 5477"],"Website":"","Emails":[""],"Latitude":"-27.3925428","Longitude":"153.0204473","scrape_datetime":1665254702140,"scrape_domain":"au.gingerpeople.com","scrape_store_name":"gingerpeople"},{"Name":"Flannerys Maroochydore","Brand":"gingerpeople","Status":null,"Address":"Shop 1 Central One? 45 Plaza Parade?","State":"QLD?","Locality":"MAROOCHYDORE?","Zip":"4558","Country":"au","PhoneNumbers":["07 5479 3522"],"Website":"","Emails":[""],"Latitude":"-26.6579093","Longitude":"153.085446","scrape_datetime":1665254702140,"scrape_domain":"au.gingerpeople.com","scrape_store_name":"gingerpeople"},{"Name":"Flannerys Miami","Brand":"gingerpeople","Status":null,"Address":"2184 Gold Coast Highway? ","State":"QLD?","Locality":"MIAMI?","Zip":"4220","Country":"au","PhoneNumbers":["07 5526 1991"],"Website":"","Emails":[""],"Latitude":"-28.0621736","Longitude":"153.4369177","scrape_datetime":1665254702140,"scrape_domain":"au.gingerpeople.com","scrape_store_name":"gingerpeople"},{"Name":"Flannerys Mona Vale","Brand":"gingerpeople","Status":null,"Address":"12-14 Park Street? ","State":"NSW?","Locality":"MONA VALE?","Zip":"2103","Country":"au","PhoneNumbers":["02 9190 8060"],"Website":"","Emails":[""],"Latitude":"-33.6759578","Longitude":"151.304755","scrape_datetime":1665254702140,"scrape_domain":"au.gingerpeople.com","scrape_store_name":"gingerpeople"},{"Name":"Flannerys Robina","Brand":"gingerpeople","Status":null,"Address":"Shop 7 Easy T Centre? Cnr Scottsdale Dr & Christine?","State":"QLD?","Locality":"ROBINA?","Zip":"4226","Country":"au","PhoneNumbers":["07 5562 5858"],"Website":"","Emails":[""],"Latitude":"-28.0850478","Longitude":"153.3920298","scrape_datetime":1665254702140,"scrape_domain":"au.gingerpeople.com","scrape_store_name":"gingerpeople"},{"Name":"Flannerys Victoria Point","Brand":"gingerpeople","Status":null,"Address":"329-369 Colburn Avenue? ","State":"QLD?","Locality":"VICTORIA POINT?","Zip":"4165","Country":"au","PhoneNumbers":["07 3472 1989"],"Website":"","Emails":[""],"Latitude":"-27.5849067","Longitude":"153.2825121","scrape_datetime":1665254702140,"scrape_domain":"au.gingerpeople.com","scrape_store_name":"gingerpeople"},{"Name":"Food for Thought","Brand":"gingerpeople","Status":null,"Address":"50 Commercial Street East ","State":"SA","Locality":"MOUNT GAMBIER","Zip":"5290","Country":"au","PhoneNumbers":["08 8723 2722"],"Website":"","Emails":[""],"Latitude":"-37.8290615","Longitude":"140.7823496","scrape_datetime":1665254702140,"scrape_domain":"au.gingerpeople.com","scrape_store_name":"gingerpeople"},{"Name":"Foodies Market Claremont IGA","Brand":"gingerpeople","Status":null,"Address":"1 Davies Road ","State":"WA","Locality":"CLAREMONT","Zip":"6010","Country":"au","PhoneNumbers":["08 6363 6199"],"Website":"","Emails":[""],"Latitude":"-31.9796295","Longitude":"115.7820663","scrape_datetime":1665254702140,"scrape_domain":"au.gingerpeople.com","scrape_store_name":"gingerpeople"},{"Name":"Foodies Organic Supplies","Brand":"gingerpeople","Status":null,"Address":"1 \/ 802 Forest Road ","State":"NSW","Locality":"PEAKHURST","Zip":"2210","Country":"au","PhoneNumbers":["02 9533 4747"],"Website":"","Emails":[""],"Latitude":"-33.9593006","Longitude":"151.0623231","scrape_datetime":1665254702140,"scrape_domain":"au.gingerpeople.com","scrape_store_name":"gingerpeople"},{"Name":"Foodland Fairview","Brand":"gingerpeople","Status":null,"Address":"325 Hancock Rd ","State":"SA","Locality":"FAIRVIEW PARK","Zip":"5126","Country":"au","PhoneNumbers":["08 8251 2100"],"Website":"","Emails":[""],"Latitude":"-34.8020475","Longitude":"138.7177306","scrape_datetime":1665254702140,"scrape_domain":"au.gingerpeople.com","scrape_store_name":"gingerpeople"},{"Name":"Foodland Frewville","Brand":"gingerpeople","Status":null,"Address":"177 Glen Osmond Rd ","State":"SA","Locality":"FREWVILLE","Zip":"5063","Country":"au","PhoneNumbers":["08 8132 7800"],"Website":"","Emails":[""],"Latitude":"-34.9464746","Longitude":"138.6265934","scrape_datetime":1665254702140,"scrape_domain":"au.gingerpeople.com","scrape_store_name":"gingerpeople"},{"Name":"Foodland Henley Square","Brand":"gingerpeople","Status":null,"Address":"303 Military Road ","State":"SA","Locality":"HENLEY BEACH","Zip":"5022","Country":"au","PhoneNumbers":["08 8219 8651"],"Website":"","Emails":[""],"Latitude":"-34.9189362","Longitude":"138.495104","scrape_datetime":1665254702140,"scrape_domain":"au.gingerpeople.com","scrape_store_name":"gingerpeople"},{"Name":"Foodland Munno Para","Brand":"gingerpeople","Status":null,"Address":"600 Main North Road ","State":"SA","Locality":"SMITHFIELD","Zip":"5114","Country":"au","PhoneNumbers":["08 8254 5555"],"Website":"","Emails":[""],"Latitude":"-34.6892722","Longitude":"138.6883778","scrape_datetime":1665254702140,"scrape_domain":"au.gingerpeople.com","scrape_store_name":"gingerpeople"},{"Name":"Foodland Norwood","Brand":"gingerpeople","Status":null,"Address":"161 -175 The Parade ","State":"SA","Locality":"NORWOOD","Zip":"5067","Country":"au","PhoneNumbers":["08 8366 5777"],"Website":"","Emails":[""],"Latitude":"-34.9207235","Longitude":"138.6355192","scrape_datetime":1665254702140,"scrape_domain":"au.gingerpeople.com","scrape_store_name":"gingerpeople"},{"Name":"Foodland Pasadena","Brand":"gingerpeople","Status":null,"Address":"20 Fiveash Drive ","State":"SA","Locality":"PASADENA","Zip":"5042","Country":"au","PhoneNumbers":["08 8374 5000"],"Website":"","Emails":[""],"Latitude":"-35.0015753","Longitude":"138.589883","scrape_datetime":1665254702140,"scrape_domain":"au.gingerpeople.com","scrape_store_name":"gingerpeople"},{"Name":"Foodland Sefton Park","Brand":"gingerpeople","Status":null,"Address":"231 Main North Rd ","State":"SA","Locality":"SEFTON PARK","Zip":"5083","Country":"au","PhoneNumbers":["08 8169 3200"],"Website":"","Emails":[""],"Latitude":"-34.876339","Longitude":"138.602999","scrape_datetime":1665254702140,"scrape_domain":"au.gingerpeople.com","scrape_store_name":"gingerpeople"},{"Name":"Foods for Life","Brand":"gingerpeople","Status":null,"Address":"100 Gawler Place ","State":"SA","Locality":"ADELAIDE","Zip":"5000","Country":"au","PhoneNumbers":["08 8227 1300"],"Website":"","Emails":[""],"Latitude":"-34.9249326","Longitude":"138.6022403","scrape_datetime":1665254702140,"scrape_domain":"au.gingerpeople.com","scrape_store_name":"gingerpeople"},{"Name":"Foodworks Apollo Bay","Brand":"gingerpeople","Status":null,"Address":"4 Hardy Street ","State":"VIC","Locality":"APOLLO BAY","Zip":"3233","Country":"au","PhoneNumbers":["03 5237 7355"],"Website":"","Emails":[""],"Latitude":"-38.7547404","Longitude":"143.6680808","scrape_datetime":1665254702140,"scrape_domain":"au.gingerpeople.com","scrape_store_name":"gingerpeople"},{"Name":"FoodWorks Ascot Vale","Brand":"gingerpeople","Status":null,"Address":"181 - 183 Union Road ","State":"VIC","Locality":"ASCOT VALE","Zip":"3032","Country":"au","PhoneNumbers":["03 9370 8426"],"Website":"","Emails":[""],"Latitude":"-37.773464","Longitude":"144.91566","scrape_datetime":1665254702140,"scrape_domain":"au.gingerpeople.com","scrape_store_name":"gingerpeople"},{"Name":"FoodWorks Bacchus Marsh","Brand":"gingerpeople","Status":null,"Address":"1-9 Bennett Street ","State":"VIC","Locality":"BACCHUS MARSH","Zip":"3340","Country":"au","PhoneNumbers":["03 5367 3388"],"Website":"","Emails":[""],"Latitude":"-37.6741353","Longitude":"144.4373344","scrape_datetime":1665254702140,"scrape_domain":"au.gingerpeople.com","scrape_store_name":"gingerpeople"},{"Name":"FoodWorks Burleigh Heads","Brand":"gingerpeople","Status":null,"Address":"6 West Street ","State":"QLD","Locality":"BURLEIGH HEADS","Zip":"4220","Country":"au","PhoneNumbers":["07 5535 2505"],"Website":"","Emails":[""],"Latitude":"-28.0893977","Longitude":"153.4498023","scrape_datetime":1665254702140,"scrape_domain":"au.gingerpeople.com","scrape_store_name":"gingerpeople"},{"Name":"FoodWorks Gisborne","Brand":"gingerpeople","Status":null,"Address":"24 Hamilton Street ","State":"VIC","Locality":"GISBORNE","Zip":"3437","Country":"au","PhoneNumbers":["03 5428 2630"],"Website":"","Emails":[""],"Latitude":"-37.4876083","Longitude":"144.5907767","scrape_datetime":1665254702140,"scrape_domain":"au.gingerpeople.com","scrape_store_name":"gingerpeople"},{"Name":"FoodWorks Goondiwindi","Brand":"gingerpeople","Status":null,"Address":"6 Herbert Street ","State":"QLD","Locality":"GOONDIWINDI","Zip":"4390","Country":"au","PhoneNumbers":["07 4677 7899"],"Website":"","Emails":[""],"Latitude":"-28.5474337","Longitude":"150.3052937","scrape_datetime":1665254702140,"scrape_domain":"au.gingerpeople.com","scrape_store_name":"gingerpeople"},{"Name":"FoodWorks Hallidays Point","Brand":"gingerpeople","Status":null,"Address":"85 High St ","State":"NSW","Locality":"HALLIDAYS POINT","Zip":"2430","Country":"au","PhoneNumbers":["02 6557 3000"],"Website":"","Emails":[""],"Latitude":"-32.0686354","Longitude":"152.5379377","scrape_datetime":1665254702140,"scrape_domain":"au.gingerpeople.com","scrape_store_name":"gingerpeople"},{"Name":"FoodWorks Keilor East","Brand":"gingerpeople","Status":null,"Address":"55 Dinah Parade ","State":"VIC","Locality":"KEILOR EAST","Zip":"3033","Country":"au","PhoneNumbers":["03 9325 4535"],"Website":"","Emails":[""],"Latitude":"-37.744589","Longitude":"144.8667373","scrape_datetime":1665254702140,"scrape_domain":"au.gingerpeople.com","scrape_store_name":"gingerpeople"},{"Name":"Foodworks Kenthurst","Brand":"gingerpeople","Status":null,"Address":"Shop 6 4 Nelson Street","State":"NSW","Locality":"KENTHURST","Zip":"2156","Country":"au","PhoneNumbers":["02 9654 0972"],"Website":"","Emails":[""],"Latitude":"-33.6608859","Longitude":"151.0059757","scrape_datetime":1665254702140,"scrape_domain":"au.gingerpeople.com","scrape_store_name":"gingerpeople"},{"Name":"Foodworks Moffat Beach","Brand":"gingerpeople","Status":null,"Address":"1\/5 Buccleugh Street ","State":"QLD","Locality":"MOFFAT BEACH","Zip":"4551","Country":"au","PhoneNumbers":["07 5491 1141"],"Website":"","Emails":[""],"Latitude":"-26.7888581","Longitude":"153.1387364","scrape_datetime":1665254702140,"scrape_domain":"au.gingerpeople.com","scrape_store_name":"gingerpeople"},{"Name":"Foodworks Montmorency","Brand":"gingerpeople","Status":null,"Address":"49-55 Were Street ","State":"VIC","Locality":"MONTMORENCY","Zip":"3094","Country":"au","PhoneNumbers":["03 9435 1750"],"Website":"","Emails":[""],"Latitude":"-37.7158722","Longitude":"145.1210422","scrape_datetime":1665254702140,"scrape_domain":"au.gingerpeople.com","scrape_store_name":"gingerpeople"},{"Name":"FoodWorks Newtown","Brand":"gingerpeople","Status":null,"Address":" 330 King Street","State":"NSW","Locality":"NEWTOWN","Zip":"2042","Country":"au","PhoneNumbers":["02 9517 2085"],"Website":"","Emails":[""],"Latitude":"-33.8982468","Longitude":"151.1788744","scrape_datetime":1665254702140,"scrape_domain":"au.gingerpeople.com","scrape_store_name":"gingerpeople"},{"Name":"FoodWorks Port Macquarie","Brand":"gingerpeople","Status":null,"Address":"35 Munster Street ","State":"NSW","Locality":"PORT MACQUARIE","Zip":"2444","Country":"au","PhoneNumbers":["02 6584 7116"],"Website":"","Emails":[""],"Latitude":"-31.4329646","Longitude":"152.9119957","scrape_datetime":1665254702140,"scrape_domain":"au.gingerpeople.com","scrape_store_name":"gingerpeople"},{"Name":"Foodworks Tenambit","Brand":"gingerpeople","Status":null,"Address":"45 Maize Street ","State":"NSW","Locality":"TENAMBIT","Zip":"2323","Country":"au","PhoneNumbers":["02 4934 5066"],"Website":"","Emails":[""],"Latitude":"-32.7435564","Longitude":"151.6034752","scrape_datetime":1665254702140,"scrape_domain":"au.gingerpeople.com","scrape_store_name":"gingerpeople"},{"Name":"Foodworks Warwick Westside","Brand":"gingerpeople","Status":null,"Address":"Westside Supermarket Shop 2 148 Wood Street","State":"QLD","Locality":"WARWICK","Zip":"4370","Country":"au","PhoneNumbers":["07 4661 1343"],"Website":"","Emails":[""],"Latitude":"-28.2182458","Longitude":"152.0140144","scrape_datetime":1665254702140,"scrape_domain":"au.gingerpeople.com","scrape_store_name":"gingerpeople"},{"Name":"Foodworks Wynnum West","Brand":"gingerpeople","Status":null,"Address":"Cnr Wynnum and Randall Road ","State":"QLD","Locality":"WYNNUM WEST","Zip":"4178","Country":"au","PhoneNumbers":["07 3396 3487"],"Website":"","Emails":[""],"Latitude":"-27.4531123","Longitude":"153.1564342","scrape_datetime":1665254702140,"scrape_domain":"au.gingerpeople.com","scrape_store_name":"gingerpeople"},{"Name":"For The Health Of It","Brand":"gingerpeople","Status":null,"Address":"73 Anderson Street ","State":"VIC","Locality":"YARRAVILLE","Zip":"3013","Country":"au","PhoneNumbers":["03 9314 3135"],"Website":"","Emails":[""],"Latitude":"-37.8165925","Longitude":"144.8889502","scrape_datetime":1665254702140,"scrape_domain":"au.gingerpeople.com","scrape_store_name":"gingerpeople"},{"Name":"Forest Lakes Pharmacy","Brand":"gingerpeople","Status":null,"Address":"Shop 20 Forest Lakes Forum Forest Lakes Drive","State":"WA","Locality":"THORNLIE","Zip":"6108","Country":"au","PhoneNumbers":["08 9493 1576"],"Website":"","Emails":[""],"Latitude":"-32.0689088","Longitude":"115.9505668","scrape_datetime":1665254702140,"scrape_domain":"au.gingerpeople.com","scrape_store_name":"gingerpeople"},{"Name":"Four Ways Fruit and Vegetables","Brand":"gingerpeople","Status":null,"Address":"124 Best Street ","State":"TAS","Locality":"DEVONPORT","Zip":"7310","Country":"au","PhoneNumbers":["03 6423 6646"],"Website":"","Emails":[""],"Latitude":"-41.1767579","Longitude":"146.3504332","scrape_datetime":1665254702140,"scrape_domain":"au.gingerpeople.com","scrape_store_name":"gingerpeople"},{"Name":"Fredericks Richmond","Brand":"gingerpeople","Status":null,"Address":"249 Bridge Road ","State":"VIC","Locality":"RICHMOND","Zip":"3121","Country":"au","PhoneNumbers":["03 9429 9194"],"Website":"","Emails":[""],"Latitude":"-37.817954","Longitude":"144.998144","scrape_datetime":1665254702140,"scrape_domain":"au.gingerpeople.com","scrape_store_name":"gingerpeople"},{"Name":"Fresh Provisions Bicton","Brand":"gingerpeople","Status":null,"Address":"Rear 258 Canning Highway ","State":"WA","Locality":"BICTON","Zip":"6157","Country":"au","PhoneNumbers":["08 9339 5333"],"Website":"","Emails":[""],"Latitude":"-32.0376037","Longitude":"115.7768569","scrape_datetime":1665254702140,"scrape_domain":"au.gingerpeople.com","scrape_store_name":"gingerpeople"},{"Name":"Fresh Provisions Mt Lawley","Brand":"gingerpeople","Status":null,"Address":"77 Walcott Street ","State":"WA","Locality":"MOUNT LAWLEY","Zip":"6050","Country":"au","PhoneNumbers":["08 9227 6309"],"Website":"","Emails":[""],"Latitude":"-31.9340795","Longitude":"115.8715664","scrape_datetime":1665254702140,"scrape_domain":"au.gingerpeople.com","scrape_store_name":"gingerpeople"},{"Name":"Fresh St Market IGA","Brand":"gingerpeople","Status":null,"Address":"Shop 5 Silo Central S\/C 2-4 Silo Road","State":"QLD","Locality":"ATHERTON","Zip":"4883","Country":"au","PhoneNumbers":["07 4030 5111"],"Website":"","Emails":[""],"Latitude":"-17.2677053","Longitude":"145.4736695","scrape_datetime":1665254702140,"scrape_domain":"au.gingerpeople.com","scrape_store_name":"gingerpeople"},{"Name":"Fresh Wholefoods","Brand":"gingerpeople","Status":null,"Address":"35 Wollumbin Street ","State":"NSW","Locality":"MURWILLUMBAH","Zip":"2484","Country":"au","PhoneNumbers":["02 6672 2715"],"Website":"","Emails":[""],"Latitude":"-28.3276043","Longitude":"153.3976363","scrape_datetime":1665254702140,"scrape_domain":"au.gingerpeople.com","scrape_store_name":"gingerpeople"},{"Name":"Fresko Fruit","Brand":"gingerpeople","Status":null,"Address":"Shop 12\/43 Avoca Dive ","State":"NSW","Locality":"KINCUMBER","Zip":"2251","Country":"au","PhoneNumbers":[""],"Website":"","Emails":[""],"Latitude":"-33.4673472","Longitude":"151.3831338","scrape_datetime":1665254702140,"scrape_domain":"au.gingerpeople.com","scrape_store_name":"gingerpeople"},{"Name":"Friendlies Busselton","Brand":"gingerpeople","Status":null,"Address":"Shop 5 Central S\/C Prince St","State":"WA","Locality":"BUSSELTON","Zip":"6280","Country":"au","PhoneNumbers":["08 9752 1276"],"Website":"","Emails":[""],"Latitude":"-33.6513055","Longitude":"115.3429302","scrape_datetime":1665254702140,"scrape_domain":"au.gingerpeople.com","scrape_store_name":"gingerpeople"},{"Name":"Fruits of Noosa","Brand":"gingerpeople","Status":null,"Address":"777 Eumundi Noosa Road ","State":"QLD","Locality":"DOONAN","Zip":"4562","Country":"au","PhoneNumbers":["07 5449 1513"],"Website":"","Emails":[""],"Latitude":"-26.4520352","Longitude":"153.0165744","scrape_datetime":1665254702140,"scrape_domain":"au.gingerpeople.com","scrape_store_name":"gingerpeople"},{"Name":"Fullife Pharmacy Mill Park","Brand":"gingerpeople","Status":null,"Address":"50\/314-360 Childs Road ","State":"VIC","Locality":"MILL PARK","Zip":"3082","Country":"au","PhoneNumbers":[""],"Website":"","Emails":[""],"Latitude":"-37.6672298","Longitude":"145.0616858","scrape_datetime":1665254702140,"scrape_domain":"au.gingerpeople.com","scrape_store_name":"gingerpeople"},{"Name":"Fundies Lismore","Brand":"gingerpeople","Status":null,"Address":"140 Keen Street? ","State":"NSW?","Locality":"LISMORE?","Zip":"2480","Country":"au","PhoneNumbers":["02 6622 2199"],"Website":"","Emails":[""],"Latitude":"-28.8091619","Longitude":"153.2787865","scrape_datetime":1665254702140,"scrape_domain":"au.gingerpeople.com","scrape_store_name":"gingerpeople"},{"Name":"Fundies Organics","Brand":"gingerpeople","Status":null,"Address":"61 Jonson Street ","State":"NSW","Locality":"BYRON BAY","Zip":"2481","Country":"au","PhoneNumbers":["02 6685 6429"],"Website":"","Emails":[""],"Latitude":"-28.6442442","Longitude":"153.6128274","scrape_datetime":1665254702140,"scrape_domain":"au.gingerpeople.com","scrape_store_name":"gingerpeople"},{"Name":"Fundies Paddington","Brand":"gingerpeople","Status":null,"Address":"219 Given Tce? ","State":"QLD?","Locality":"PADDINGTON?","Zip":"4064","Country":"au","PhoneNumbers":["07 3368 1855"],"Website":"","Emails":[""],"Latitude":"-27.4613951","Longitude":"153.0058695","scrape_datetime":1665254702140,"scrape_domain":"au.gingerpeople.com","scrape_store_name":"gingerpeople"},{"Name":"Funki Munki","Brand":"gingerpeople","Status":null,"Address":"21 Otho Street ","State":"NSW","Locality":"INVERELL","Zip":"2360","Country":"au","PhoneNumbers":["02 6721 1305"],"Website":"","Emails":[""],"Latitude":"-29.7743034","Longitude":"151.1114439","scrape_datetime":1665254702140,"scrape_domain":"au.gingerpeople.com","scrape_store_name":"gingerpeople"},{"Name":"Garden Grub Cafe","Brand":"gingerpeople","Status":null,"Address":"99 Isabella Street ","State":"NSW","Locality":"WINGHAM","Zip":"2429","Country":"au","PhoneNumbers":[""],"Website":"","Emails":[""],"Latitude":"-31.868282","Longitude":"152.3730525","scrape_datetime":1665254702140,"scrape_domain":"au.gingerpeople.com","scrape_store_name":"gingerpeople"},{"Name":"Garden of Eden Tweed Heads","Brand":"gingerpeople","Status":null,"Address":"Shop 2\/4 Machinery Drive ","State":"NSW","Locality":"TWEED HEADS SOUTH","Zip":"2486","Country":"au","PhoneNumbers":["07 5523 2992"],"Website":"","Emails":[""],"Latitude":"-28.2024038","Longitude":"153.5430501","scrape_datetime":1665254702140,"scrape_domain":"au.gingerpeople.com","scrape_store_name":"gingerpeople"},{"Name":"Gathered Organics","Brand":"gingerpeople","Status":null,"Address":"23 Bullich Place ","State":"WA","Locality":"MARGARET RIVER","Zip":"6285","Country":"au","PhoneNumbers":[""],"Website":"","Emails":[""],"Latitude":"-33.9546482","Longitude":"115.0840143","scrape_datetime":1665254702140,"scrape_domain":"au.gingerpeople.com","scrape_store_name":"gingerpeople"},{"Name":"GD Wholesale Fruit Supplies","Brand":"gingerpeople","Status":null,"Address":"22 Suffolk Rd ","State":"SA","Locality":"HAWTHORNDENE","Zip":"5051","Country":"au","PhoneNumbers":["08 8278 6444"],"Website":"","Emails":[""],"Latitude":"-35.0203712","Longitude":"138.6341499","scrape_datetime":1665254702140,"scrape_domain":"au.gingerpeople.com","scrape_store_name":"gingerpeople"},{"Name":"Geelong Healthfoods","Brand":"gingerpeople","Status":null,"Address":"165 Pakington Street ","State":"VIC","Locality":"GEELONG WEST","Zip":"3218","Country":"au","PhoneNumbers":["03 5223 3442"],"Website":"","Emails":[""],"Latitude":"-38.1416751","Longitude":"144.3478574","scrape_datetime":1665254702140,"scrape_domain":"au.gingerpeople.com","scrape_store_name":"gingerpeople"},{"Name":"Genki Mart","Brand":"gingerpeople","Status":null,"Address":"Shop 3 24 South Pine Road","State":"QLD","Locality":"ALDERLEY","Zip":"4051","Country":"au","PhoneNumbers":[""],"Website":"","Emails":[""],"Latitude":"-27.4247308","Longitude":"153.000329","scrape_datetime":1665254702140,"scrape_domain":"au.gingerpeople.com","scrape_store_name":"gingerpeople"},{"Name":"Giant Chemist Harbour Town","Brand":"gingerpeople","Status":null,"Address":"Shop 2 Harbour Town S\/C Cnr Oxley Drv & Brisbane Rd","State":"QLD","Locality":"BIGGERA WATERS","Zip":"4216","Country":"au","PhoneNumbers":["07 5529 3444"],"Website":"","Emails":[""],"Latitude":"-27.933897","Longitude":"153.390877","scrape_datetime":1665254702140,"scrape_domain":"au.gingerpeople.com","scrape_store_name":"gingerpeople"},{"Name":"Giant Chemist Pacific Fair","Brand":"gingerpeople","Status":null,"Address":"Shop 1615 Pacific Fair S\/C Hooker Boulevard","State":"QLD","Locality":"BROADBEACH","Zip":"4218","Country":"au","PhoneNumbers":["07 5527 6700"],"Website":"","Emails":[""],"Latitude":"-28.036401","Longitude":"153.4280222","scrape_datetime":1665254702140,"scrape_domain":"au.gingerpeople.com","scrape_store_name":"gingerpeople"},{"Name":"Gilbert & Sons Fresh Market Mandurah","Brand":"gingerpeople","Status":null,"Address":"Cnr Rouse Rd & Mandurah Road ","State":"WA","Locality":"MANDURAH","Zip":"6210","Country":"au","PhoneNumbers":["08 9581 7612"],"Website":"","Emails":[""],"Latitude":"-32.5159095","Longitude":"115.7471959","scrape_datetime":1665254702140,"scrape_domain":"au.gingerpeople.com","scrape_store_name":"gingerpeople"},{"Name":"Glenelg South Foodland","Brand":"gingerpeople","Status":null,"Address":"101-103 Partridge Street ","State":"SA","Locality":"GLENELG SOUTH","Zip":"5045","Country":"au","PhoneNumbers":["08 8294 3655"],"Website":"","Emails":[""],"Latitude":"-34.9900681","Longitude":"138.5179574","scrape_datetime":1665254702140,"scrape_domain":"au.gingerpeople.com","scrape_store_name":"gingerpeople"},{"Name":"GLO Health Elsternwick","Brand":"gingerpeople","Status":null,"Address":"358 Glen Huntly Road ","State":"VIC","Locality":"ELSTERNWICK","Zip":"3185","Country":"au","PhoneNumbers":["03 9523 7824"],"Website":"","Emails":[""],"Latitude":"-37.8849159","Longitude":"145.0037038","scrape_datetime":1665254702140,"scrape_domain":"au.gingerpeople.com","scrape_store_name":"gingerpeople"},{"Name":"GMD Pty Ltd The Cook Grocer","Brand":"gingerpeople","Status":null,"Address":"28 Cook Place ","State":"ACT","Locality":"COOK","Zip":"2614","Country":"au","PhoneNumbers":[""],"Website":"","Emails":[""],"Latitude":"-35.2591515","Longitude":"149.0632667","scrape_datetime":1665254702140,"scrape_domain":"au.gingerpeople.com","scrape_store_name":"gingerpeople"},{"Name":"Go Natural Foods Torquay","Brand":"gingerpeople","Status":null,"Address":"6A Bideford Street ","State":"QLD","Locality":"TORQUAY","Zip":"4655","Country":"au","PhoneNumbers":["07 4194 6712"],"Website":"","Emails":[""],"Latitude":"-25.284654","Longitude":"152.8702617","scrape_datetime":1665254702140,"scrape_domain":"au.gingerpeople.com","scrape_store_name":"gingerpeople"},{"Name":"Go Vita @ Jamison (Allergy Centre)","Brand":"gingerpeople","Status":null,"Address":"Shop 2 Jamison Centre Bowman Street","State":"ACT","Locality":"MACQUARIE","Zip":"2614","Country":"au","PhoneNumbers":["02 6251 2670"],"Website":"","Emails":[""],"Latitude":"-35.2528385","Longitude":"149.0721158","scrape_datetime":1665254702140,"scrape_domain":"au.gingerpeople.com","scrape_store_name":"gingerpeople"},{"Name":"Go Vita Alice Springs","Brand":"gingerpeople","Status":null,"Address":"Shop 35 Alice Plaza 36 Todd Mall","State":"NT","Locality":"ALICE SPRINGS","Zip":"870","Country":"au","PhoneNumbers":["08 8154 0500"],"Website":"","Emails":[""],"Latitude":"-23.6986074","Longitude":"133.8826789","scrape_datetime":1665254702140,"scrape_domain":"au.gingerpeople.com","scrape_store_name":"gingerpeople"},{"Name":"Go Vita Ballarat","Brand":"gingerpeople","Status":null,"Address":"23 Sturt Street ","State":"VIC","Locality":"BALLARAT CENTRAL","Zip":"3350","Country":"au","PhoneNumbers":["03 5331 5316"],"Website":"","Emails":[""],"Latitude":"-37.562544","Longitude":"143.8598403","scrape_datetime":1665254702140,"scrape_domain":"au.gingerpeople.com","scrape_store_name":"gingerpeople"},{"Name":"Go Vita Ballina Fair","Brand":"gingerpeople","Status":null,"Address":"Shop 65 Ballina Fair S\/C Kerr Street","State":"NSW","Locality":"BALLINA","Zip":"2478","Country":"au","PhoneNumbers":["02 6686 8252"],"Website":"","Emails":[""],"Latitude":"-28.8583592","Longitude":"153.5589758","scrape_datetime":1665254702140,"scrape_domain":"au.gingerpeople.com","scrape_store_name":"gingerpeople"},{"Name":"Go Vita Bateau Bay","Brand":"gingerpeople","Status":null,"Address":"Shop 59 Bateau Bay Square 12 Bay Village Rd","State":"NSW","Locality":"BATEAU BAY","Zip":"2261","Country":"au","PhoneNumbers":["02 4334 3448"],"Website":"","Emails":[""],"Latitude":"-33.3747465","Longitude":"151.4732599","scrape_datetime":1665254702140,"scrape_domain":"au.gingerpeople.com","scrape_store_name":"gingerpeople"},{"Name":"Go Vita Batemans Bay","Brand":"gingerpeople","Status":null,"Address":"5 North Street ","State":"NSW","Locality":"BATEMANS BAY","Zip":"2536","Country":"au","PhoneNumbers":["02 4472 9737"],"Website":"","Emails":[""],"Latitude":"-35.7060788","Longitude":"150.1772941","scrape_datetime":1665254702140,"scrape_domain":"au.gingerpeople.com","scrape_store_name":"gingerpeople"},{"Name":"Go Vita Bayside","Brand":"gingerpeople","Status":null,"Address":"Shop 161, Level 1 Bayside S\/C 28 Beach Street","State":"VIC","Locality":"FRANKSTON","Zip":"3199","Country":"au","PhoneNumbers":["03 9781 4430"],"Website":"","Emails":[""],"Latitude":"-38.1411014","Longitude":"145.1245331","scrape_datetime":1665254702140,"scrape_domain":"au.gingerpeople.com","scrape_store_name":"gingerpeople"},{"Name":"Go Vita Berwick","Brand":"gingerpeople","Status":null,"Address":"Shop 10 Blackburne Square ","State":"VIC","Locality":"BERWICK","Zip":"3806","Country":"au","PhoneNumbers":["03 9707 1148"],"Website":"","Emails":[""],"Latitude":"-38.030336","Longitude":"145.346099","scrape_datetime":1665254702140,"scrape_domain":"au.gingerpeople.com","scrape_store_name":"gingerpeople"},{"Name":"Go Vita Blacktown","Brand":"gingerpeople","Status":null,"Address":"Shop 1000 Westpoint S\/C 17 Patrick Street","State":"NSW","Locality":"BLACKTOWN","Zip":"2148","Country":"au","PhoneNumbers":[""],"Website":"","Emails":[""],"Latitude":"-33.7702517","Longitude":"150.9060461","scrape_datetime":1665254702140,"scrape_domain":"au.gingerpeople.com","scrape_store_name":"gingerpeople"},{"Name":"Go Vita Bondi","Brand":"gingerpeople","Status":null,"Address":"Shop 1025, Level 1 Westfield 500 Oxford Street","State":"NSW","Locality":"BONDI JUNCTION","Zip":"2022","Country":"au","PhoneNumbers":["02 8964 6226"],"Website":"","Emails":[""],"Latitude":"-33.8915695","Longitude":"151.2505012","scrape_datetime":1665254702140,"scrape_domain":"au.gingerpeople.com","scrape_store_name":"gingerpeople"},{"Name":"Go Vita Broadway","Brand":"gingerpeople","Status":null,"Address":"Shop G2, Broadway Shopping Cen 1 Bay Street","State":"NSW","Locality":"ULTIMO","Zip":"2007","Country":"au","PhoneNumbers":[""],"Website":"","Emails":[""],"Latitude":"-33.8842201","Longitude":"151.1947174","scrape_datetime":1665254702140,"scrape_domain":"au.gingerpeople.com","scrape_store_name":"gingerpeople"},{"Name":"Go Vita Bunbury","Brand":"gingerpeople","Status":null,"Address":"Shop 4 Bunbury Forum S\/C Sandridge Road","State":"WA","Locality":"BUNBURY","Zip":"6230","Country":"au","PhoneNumbers":["08 9721 7111"],"Website":"","Emails":[""],"Latitude":"-33.3368057","Longitude":"115.6597394","scrape_datetime":1665254702140,"scrape_domain":"au.gingerpeople.com","scrape_store_name":"gingerpeople"},{"Name":"Go Vita Bundaberg","Brand":"gingerpeople","Status":null,"Address":"Shop 3A, Westpoint Centre 107 Takalvan Street","State":"QLD","Locality":"BUNDABERG WEST","Zip":"4670","Country":"au","PhoneNumbers":[""],"Website":"","Emails":[""],"Latitude":"-24.8869846","Longitude":"152.3206737","scrape_datetime":1665254702140,"scrape_domain":"au.gingerpeople.com","scrape_store_name":"gingerpeople"},{"Name":"Go Vita Burwood (The Health House)","Brand":"gingerpeople","Status":null,"Address":"Shop G39 Burwood One SC 172 Burwood Highway","State":"VIC","Locality":"BURWOOD EAST","Zip":"3151","Country":"au","PhoneNumbers":["03 9886 3165"],"Website":"","Emails":[""],"Latitude":"-37.8537967","Longitude":"145.1499082","scrape_datetime":1665254702140,"scrape_domain":"au.gingerpeople.com","scrape_store_name":"gingerpeople"},