[{"Name":"AZ &#8211; Avondale, N. Dysart Rd.","Brand":"The Human Bean","Status":null,"Address":"1547 N. Dysart Rd.","State":"AZ","Locality":null,"Zip":"85392","Country":"United States (US)","PhoneNumbers":["1-888-262-2215",""],"Website":"https:\/\/thehumanbean.com\/location\/the-human-bean-1547-n-dysart-rd-avondale-az\/","Emails":["&#100;eser&#116;b&#101;a&#110;&#115;&#108;&#108;&#99;&#64;g&#109;&#97;il&#46;com"],"Latitude":33.4619301,"Longitude":-112.340888,"scrape_datetime":1665257704299,"scrape_domain":"thehumanbean.com","scrape_store_name":"The Human Bean"},{"Name":"AZ &#8211; Bullhead City, Hwy 95 (1)","Brand":"The Human Bean","Status":null,"Address":"2646 Highway 95","State":"AZ","Locality":null,"Zip":"86442","Country":"United States (US)","PhoneNumbers":["1-928-299-5199",""],"Website":"https:\/\/thehumanbean.com\/location\/human-bean-2646-highway-95-bullhead-city-arizona\/","Emails":["&#104;&#117;&#109;a&#110;bea&#110;&#104;a&#118;&#97;&#115;&#117;&#64;gm&#97;i&#108;&#46;&#99;o&#109;"],"Latitude":35.08983387,"Longitude":-114.5977056,"scrape_datetime":1665257704299,"scrape_domain":"thehumanbean.com","scrape_store_name":"The Human Bean"},{"Name":"AZ &#8211; Bullhead City, Hwy 95 (2)","Brand":"The Human Bean","Status":null,"Address":"1191 Highway 95","State":"AZ","Locality":null,"Zip":"86429","Country":"United States (US)","PhoneNumbers":["1-928-404-6010",""],"Website":"https:\/\/thehumanbean.com\/location\/the-human-bean-of-bullhead-city-ii\/","Emails":["&#104;u&#109;&#97;nb&#101;anh&#97;vasu&#64;&#103;m&#97;il.&#99;o&#109;"],"Latitude":35.142489,"Longitude":-114.569552,"scrape_datetime":1665257704299,"scrape_domain":"thehumanbean.com","scrape_store_name":"The Human Bean"},{"Name":"AZ &#8211; Fort Mohave, E Camino Colorado","Brand":"The Human Bean","Status":null,"Address":"1490 E Camino Colorado","State":"AZ","Locality":null,"Zip":"86426","Country":"United States (US)","PhoneNumbers":["1-928-404-2179",""],"Website":"https:\/\/thehumanbean.com\/location\/human-bean-1490-e-camino-colorado-fort-mohave-az-86426\/","Emails":["huma&#110;bea&#110;&#104;a&#118;&#97;&#115;u&#64;&#103;&#109;&#97;&#105;l.&#99;&#111;m"],"Latitude":35.0224409,"Longitude":-114.5958699,"scrape_datetime":1665257704299,"scrape_domain":"thehumanbean.com","scrape_store_name":"The Human Bean"},{"Name":"AZ &#8211; Kingman, E Andy Devine (Route 66)","Brand":"The Human Bean","Status":null,"Address":"3330 East Andy Devine","State":"AZ","Locality":null,"Zip":"86401","Country":"United States (US)","PhoneNumbers":["1-928-377-3420",""],"Website":"https:\/\/thehumanbean.com\/location\/3330-east-andy-devine-kingman-az-86401\/","Emails":["&#104;u&#109;&#97;nb&#101;a&#110;&#104;&#97;&#118;&#97;&#115;u&#64;gmail.c&#111;m"],"Latitude":35.2218116,"Longitude":-114.0064405,"scrape_datetime":1665257704299,"scrape_domain":"thehumanbean.com","scrape_store_name":"The Human Bean"},{"Name":"AZ &#8211; Kingman, N Stockton Hill Rd","Brand":"The Human Bean","Status":null,"Address":"2651 Stockton Hill Rd","State":"AZ","Locality":null,"Zip":"86401","Country":"United States (US)","PhoneNumbers":["1-928-529-5011",""],"Website":"https:\/\/thehumanbean.com\/location\/human-bean-2651-stockton-hill-rd-kingman-arizona\/","Emails":["&#104;&#117;&#109;&#97;n&#98;&#101;anh&#97;&#118;as&#117;&#64;&#103;m&#97;il.com"],"Latitude":35.2101446,"Longitude":-114.0350966,"scrape_datetime":1665257704299,"scrape_domain":"thehumanbean.com","scrape_store_name":"The Human Bean"},{"Name":"AZ &#8211; Lake Havasu City, Lake Havasu Ave","Brand":"The Human Bean","Status":null,"Address":"633 Lake Havasu Ave.","State":"AZ","Locality":null,"Zip":"86403","Country":"United States (US)","PhoneNumbers":["1-928-505-4023",""],"Website":"https:\/\/thehumanbean.com\/location\/human-bean-633-lake-havasu-ave-lake-havasu-city-arizona\/","Emails":["&#104;um&#97;&#110;be&#97;&#110;&#104;av&#97;&#115;u&#64;&#103;ma&#105;l&#46;com"],"Latitude":34.49260253,"Longitude":-114.3483192,"scrape_datetime":1665257704299,"scrape_domain":"thehumanbean.com","scrape_store_name":"The Human Bean"},{"Name":"AZ &#8211; Lake Havasu City, N Palo Verde Blvd","Brand":"The Human Bean","Status":null,"Address":"2035 Palo Verde Blvd. N","State":"AZ","Locality":null,"Zip":"86404","Country":"United States (US)","PhoneNumbers":["1-928-680-7356",""],"Website":"https:\/\/thehumanbean.com\/location\/human-bean-2035-palo-verde-blvd-n-lake-havasu-city-arizona\/","Emails":["&#104;u&#109;&#97;&#110;bean&#104;av&#97;s&#117;&#64;g&#109;&#97;i&#108;&#46;&#99;&#111;&#109;"],"Latitude":34.51765883,"Longitude":-114.3488921,"scrape_datetime":1665257704299,"scrape_domain":"thehumanbean.com","scrape_store_name":"The Human Bean"},{"Name":"AZ &#8211; Lake Havasu City, S Mcculloch","Brand":"The Human Bean","Status":null,"Address":"1736 South McCulloch","State":"AZ","Locality":null,"Zip":"86406","Country":"United States (US)","PhoneNumbers":["1-928-680-7336",""],"Website":"https:\/\/thehumanbean.com\/location\/human-bean-1736-south-mcculloch-lake-havasu-city-arizona\/","Emails":["hum&#97;n&#98;e&#97;n&#104;&#97;v&#97;s&#117;&#64;g&#109;&#97;&#105;l.c&#111;&#109;"],"Latitude":34.4528899,"Longitude":-114.265083,"scrape_datetime":1665257704299,"scrape_domain":"thehumanbean.com","scrape_store_name":"The Human Bean"},{"Name":"AZ &#8211; Litchfield, W. Camelback Rd.","Brand":"The Human Bean","Status":null,"Address":"13007 W. Camelback Road","State":"AZ","Locality":null,"Zip":"85340","Country":"United States (US)","PhoneNumbers":["1-888-262-2215",""],"Website":"https:\/\/thehumanbean.com\/location\/the-human-bean-13007-w-camelback-road-litchfield-az\/","Emails":["&#119;&#97;&#108;t&#101;r&#98;oys&#108;lc&#64;&#103;mai&#108;.&#99;&#111;m"],"Latitude":33.5077839,"Longitude":-112.3405944,"scrape_datetime":1665257704299,"scrape_domain":"thehumanbean.com","scrape_store_name":"The Human Bean"},{"Name":"AZ &#8211; Mesa, S Power Rd","Brand":"The Human Bean","Status":null,"Address":"29 South Power Rd.","State":"AZ","Locality":null,"Zip":"85207","Country":"United States (US)","PhoneNumbers":["1-480-219-0505",""],"Website":"https:\/\/thehumanbean.com\/location\/human-bean-29-south-power-rd-mesa-arizona\/","Emails":["&#98;ri&#97;&#110;&#64;&#104;um&#97;n&#98;&#101;a&#110;az.&#99;omgreg&#46;&#99;&#46;sh&#101;&#114;&#114;&#105;&#108;lgma&#105;l.co&#109;"],"Latitude":33.41497206,"Longitude":-111.6842863,"scrape_datetime":1665257704299,"scrape_domain":"thehumanbean.com","scrape_store_name":"The Human Bean"},{"Name":"AZ &#8211; Phoenix, E Baseline Rd","Brand":"The Human Bean","Status":null,"Address":"4377 East Baseline Rd.","State":"AZ","Locality":null,"Zip":"85042","Country":"United States (US)","PhoneNumbers":["1-602-296-7748",""],"Website":"https:\/\/thehumanbean.com\/location\/4377-east-baseline-rd-phoenix-az-85042\/","Emails":["&#104;&#117;ma&#110;&#98;ea&#110;phx&#64;&#103;mai&#108;&#46;&#99;&#111;&#109;"],"Latitude":33.3776864,"Longitude":-111.9899529,"scrape_datetime":1665257704299,"scrape_domain":"thehumanbean.com","scrape_store_name":"The Human Bean"},{"Name":"AZ &#8211; Phoenix, Indian School Rd","Brand":"The Human Bean","Status":null,"Address":"2010 East Indian School Road","State":"AZ","Locality":null,"Zip":"85016","Country":"United States (US)","PhoneNumbers":["1-602-296-5466",""],"Website":"https:\/\/thehumanbean.com\/location\/the-human-bean-2000-east-indian-school-rd-phoenix-az\/","Emails":["&#104;&#117;&#109;&#97;nb&#101;anp&#104;&#120;&#64;g&#109;a&#105;&#108;&#46;com"],"Latitude":33.4949852,"Longitude":-112.038648,"scrape_datetime":1665257704299,"scrape_domain":"thehumanbean.com","scrape_store_name":"The Human Bean"},{"Name":"AZ &#8211; Phoenix, N 16th St","Brand":"The Human Bean","Status":null,"Address":"6502 16th St.","State":"AZ","Locality":null,"Zip":"85016","Country":"United States (US)","PhoneNumbers":["1-602-368-6391",""],"Website":"https:\/\/thehumanbean.com\/location\/human-bean-6502-n-16th-st-phoenix-arizona-85016\/","Emails":["&#98;r&#105;&#97;n&#64;hu&#109;&#97;&#110;&#98;ean&#97;z&#46;&#99;&#111;mgre&#103;.c.sh&#101;&#114;&#114;i&#108;&#108;&#103;ma&#105;l&#46;&#99;&#111;&#109;"],"Latitude":33.53131388,"Longitude":-112.047798,"scrape_datetime":1665257704299,"scrape_domain":"thehumanbean.com","scrape_store_name":"The Human Bean"},{"Name":"AZ &#8211; Phoenix, N 19th Ave","Brand":"The Human Bean","Status":null,"Address":"20055 N. 19th Ave.","State":"AZ","Locality":null,"Zip":"85027","Country":"United States (US)","PhoneNumbers":["1-602-368-6391",""],"Website":"https:\/\/thehumanbean.com\/location\/human-bean-20055-n-19th-ave-phoenix-az-85027\/","Emails":["&#98;r&#105;&#97;&#110;&#64;hu&#109;an&#98;e&#97;&#110;a&#122;&#46;c&#111;mg&#114;&#101;&#103;&#46;&#99;.she&#114;ri&#108;&#108;gma&#105;l&#46;c&#111;&#109;"],"Latitude":33.668416,"Longitude":-112.099373,"scrape_datetime":1665257704299,"scrape_domain":"thehumanbean.com","scrape_store_name":"The Human Bean"},{"Name":"AZ &#8211; Prescott Valley, E. State Route 69","Brand":"The Human Bean","Status":null,"Address":"8196 E State Route 69","State":"AZ","Locality":null,"Zip":"86314","Country":"United States (US)","PhoneNumbers":["1-888-262-2215",""],"Website":"https:\/\/thehumanbean.com\/location\/the-human-bean-8196-e-state-route-69-prescott-valley-az\/","Emails":["a&#108;iw&#111;f&#102;o&#114;&#100;&#64;&#103;&#109;&#97;&#105;&#108;&#46;&#99;om"],"Latitude":34.5860007,"Longitude":-112.3225961,"scrape_datetime":1665257704299,"scrape_domain":"thehumanbean.com","scrape_store_name":"The Human Bean"},{"Name":"AZ &#8211; Tempe, E University Dr","Brand":"The Human Bean","Status":null,"Address":"1765 E University Drive","State":"AZ","Locality":null,"Zip":"85281","Country":"United States (US)","PhoneNumbers":["1-602-359-0852",""],"Website":"https:\/\/thehumanbean.com\/location\/human-bean-1765-e-university-drive-tempe-arizona\/","Emails":["h&#117;&#109;&#97;nbean&#112;h&#120;&#64;&#103;m&#97;i&#108;&#46;&#99;&#111;&#109;"],"Latitude":33.42152553,"Longitude":-111.9110005,"scrape_datetime":1665257704299,"scrape_domain":"thehumanbean.com","scrape_store_name":"The Human Bean"},{"Name":"CA &#8211; Atascadero, El Camino Real","Brand":"The Human Bean","Status":null,"Address":"7835 El Camino Real","State":"CA","Locality":null,"Zip":"93422","Country":"United States (US)","PhoneNumbers":["1-209-603-4740.",""],"Website":"https:\/\/thehumanbean.com\/location\/7835-el-camino-real-atascadero-california\/","Emails":["&#98;&#111;&#98;&#64;&#109;oss&#108;a&#110;e&#118;en&#116;u&#114;es.&#99;om"],"Latitude":35.4786578,"Longitude":-120.6566365,"scrape_datetime":1665257704299,"scrape_domain":"thehumanbean.com","scrape_store_name":"The Human Bean"},{"Name":"CA &#8211; Chico, Esplanade Rd","Brand":"The Human Bean","Status":null,"Address":"2805 Esplanade Road","State":"CA","Locality":null,"Zip":"95973","Country":"United States (US)","PhoneNumbers":["1-530-399-3102",""],"Website":"https:\/\/thehumanbean.com\/location\/human-bean-2805-esplanade-chico-ca\/","Emails":["thbc&#104;&#105;co&#64;&#104;o&#116;m&#97;il.c&#111;m"],"Latitude":39.7610098,"Longitude":-121.8662011,"scrape_datetime":1665257704299,"scrape_domain":"thehumanbean.com","scrape_store_name":"The Human Bean"},{"Name":"CA &#8211; Citrus Heights, Sunrise Blvd","Brand":"The Human Bean","Status":null,"Address":"7601 Sunrise Blvd.","State":"CA","Locality":null,"Zip":"95610","Country":"United States (US)","PhoneNumbers":["1-916-722-3511",""],"Website":"https:\/\/thehumanbean.com\/location\/human-bean-7601-sunrise-blvd-citrus-heights-ca-95610\/","Emails":["&#97;&#109;&#105;&#101;dw&#97;l&#108;&#97;c&#101;&#64;&#103;&#109;&#97;&#105;&#108;&#46;c&#111;&#109;"],"Latitude":38.7037849,"Longitude":-121.2728355,"scrape_datetime":1665257704299,"scrape_domain":"thehumanbean.com","scrape_store_name":"The Human Bean"},{"Name":"CA &#8211; Clovis, Shaw Ave","Brand":"The Human Bean","Status":null,"Address":"1720 Shaw Avenue","State":"CA","Locality":null,"Zip":"93611","Country":"United States (US)","PhoneNumbers":["209-603-4740",""],"Website":"https:\/\/thehumanbean.com\/location\/the-human-bean-1720-shaw-avenue-clovis-ca\/","Emails":["&#98;o&#98;&#64;&#109;o&#115;s&#108;&#97;ne&#118;e&#110;tu&#114;e&#115;.c&#111;&#109;"],"Latitude":36.8078302,"Longitude":-119.6839483,"scrape_datetime":1665257704299,"scrape_domain":"thehumanbean.com","scrape_store_name":"The Human Bean"},{"Name":"CA &#8211; La Mesa, Parkway Dr.","Brand":"The Human Bean","Status":null,"Address":"8303 Parkway Drive","State":"CA","Locality":null,"Zip":"91942","Country":"United States (US)","PhoneNumbers":["1-888-262-2215",""],"Website":"https:\/\/thehumanbean.com\/location\/the-human-bean-8303-parkway-drive-la-mesa-ca-3\/","Emails":["an&#116;&#104;o&#110;y&#64;&#118;erve&#98;&#101;&#118;&#46;com"],"Latitude":32.7782984,"Longitude":-117.0180994,"scrape_datetime":1665257704299,"scrape_domain":"thehumanbean.com","scrape_store_name":"The Human Bean"},{"Name":"CA &#8211; Lake Forest, El Toro Rd","Brand":"The Human Bean","Status":null,"Address":"21991 El Toro Lake","State":"CA","Locality":null,"Zip":"92630","Country":"United States (US)","PhoneNumbers":["1-949-800-6426",""],"Website":"https:\/\/thehumanbean.com\/location\/human-bean-21991-el-toro-lake-forest-california\/","Emails":["&#118;&#97;&#100;&#101;&#114;&#114;&#97;&#110;j&#101;et&#64;&#103;&#109;a&#105;&#108;&#46;&#99;&#111;&#109;"],"Latitude":33.64397109,"Longitude":-117.6669208,"scrape_datetime":1665257704299,"scrape_domain":"thehumanbean.com","scrape_store_name":"The Human Bean"},{"Name":"CA &#8211; Lompoc, N. H St.","Brand":"The Human Bean","Status":null,"Address":"401 N H St.","State":"CA","Locality":null,"Zip":"93436","Country":"United States (US)","PhoneNumbers":["1-888-262-2215",""],"Website":"https:\/\/thehumanbean.com\/location\/the-human-bean-401-n-h-st-lompoc-ca\/","Emails":["&#98;&#111;b&#64;&#109;&#111;&#115;s&#108;&#97;&#110;&#101;&#118;&#101;&#110;tu&#114;es&#46;&#99;o&#109;"],"Latitude":34.6440043,"Longitude":-120.4582096,"scrape_datetime":1665257704299,"scrape_domain":"thehumanbean.com","scrape_store_name":"The Human Bean"},{"Name":"CA &#8211; Morro Bay, Morro Bay Rd","Brand":"The Human Bean","Status":null,"Address":"839 Morro Bay Rd.","State":"CA","Locality":null,"Zip":"93442","Country":"United States (US)","PhoneNumbers":["1-209-603-4740",""],"Website":"https:\/\/thehumanbean.com\/location\/the-human-bean-839-morro-bay-rd-morro-bay-ca\/","Emails":["b&#111;&#98;&#64;&#109;o&#115;&#115;&#108;&#97;&#110;&#101;v&#101;&#110;&#116;u&#114;es&#46;c&#111;m"],"Latitude":35.3662186,"Longitude":-120.8427385,"scrape_datetime":1665257704299,"scrape_domain":"thehumanbean.com","scrape_store_name":"The Human Bean"},{"Name":"CA &#8211; Porterville, Henderson Ave","Brand":"The Human Bean","Status":null,"Address":"410 West Henderson Ave.","State":"CA","Locality":null,"Zip":"93257","Country":"United States (US)","PhoneNumbers":["1-559-782-6373",""],"Website":"https:\/\/thehumanbean.com\/location\/the-human-bean-410-west-henderson-ave-porterville-ca\/","Emails":["&#84;h&#101;&#104;&#117;&#109;&#97;&#110;&#98;&#101;&#97;&#110;.s&#104;an&#101;il&#100;e&#108;g&#97;&#100;&#111;&#64;&#103;m&#97;&#105;&#108;.&#99;o&#109;"],"Latitude":36.0808018,"Longitude":-119.0264361,"scrape_datetime":1665257704299,"scrape_domain":"thehumanbean.com","scrape_store_name":"The Human Bean"},{"Name":"CA &#8211; Porterville, W. Olive Ave.","Brand":"The Human Bean","Status":null,"Address":"1477 West Olive Avenue","State":"CA","Locality":null,"Zip":"93257","Country":"United States (US)","PhoneNumbers":["559-782-6348",""],"Website":"https:\/\/thehumanbean.com\/location\/ca-porterville-w-olive-ave\/","Emails":["&#116;h&#101;&#104;&#117;&#109;a&#110;b&#101;&#97;&#110;&#46;&#115;ha&#110;e&#105;&#108;&#100;&#101;&#108;&#103;&#97;do&#64;&#103;&#109;a&#105;l.&#99;&#111;&#109;"],"Latitude":36.0653456,"Longitude":-119.0504758,"scrape_datetime":1665257704299,"scrape_domain":"thehumanbean.com","scrape_store_name":"The Human Bean"},{"Name":"CA &#8211; Red Bluff, Main St","Brand":"The Human Bean","Status":null,"Address":"2135 Main Street","State":"CA","Locality":null,"Zip":"96080","Country":"United States (US)","PhoneNumbers":["1-530-529-2628",""],"Website":"https:\/\/thehumanbean.com\/location\/human-bean-2135-main-street-red-bluff-california\/","Emails":["&#115;&#116;&#101;&#101;le&#108;&#121;&#115;&#115;&#64;&#121;ahoo&#46;co&#109;"],"Latitude":40.1891492,"Longitude":-122.2394977,"scrape_datetime":1665257704299,"scrape_domain":"thehumanbean.com","scrape_store_name":"The Human Bean"},{"Name":"CA &#8211; Rio Vista, Hwy 12","Brand":"The Human Bean","Status":null,"Address":"1010 Hwy 12","State":"CA","Locality":null,"Zip":"94571","Country":"United States (US)","PhoneNumbers":["1-707-507-9123",""],"Website":"https:\/\/thehumanbean.com\/location\/human-bean-1010-hwy-12-rio-vista-ca\/","Emails":["theh&#117;&#109;a&#110;&#98;&#101;&#97;n.ri&#111;v&#105;&#115;&#116;a&#64;g&#109;&#97;&#105;&#108;.&#99;om"],"Latitude":38.1627848,"Longitude":-121.6986402,"scrape_datetime":1665257704299,"scrape_domain":"thehumanbean.com","scrape_store_name":"The Human Bean"},{"Name":"CA &#8211; Rocklin, Coppervale Dr","Brand":"The Human Bean","Status":null,"Address":"2401 Coppervale Drive","State":"CA","Locality":null,"Zip":"95765","Country":"United States (US)","PhoneNumbers":["1-916-899-6675",""],"Website":"https:\/\/thehumanbean.com\/location\/human-bean-2401-coppervale-drive-rocklin-california\/","Emails":["&#97;m&#105;e&#100;wall&#97;&#99;e&#64;&#103;m&#97;&#105;l&#46;&#99;&#111;m"],"Latitude":38.79572643,"Longitude":-121.2666027,"scrape_datetime":1665257704299,"scrape_domain":"thehumanbean.com","scrape_store_name":"The Human Bean"},{"Name":"CA &#8211; Templeton, Rossi Rd","Brand":"The Human Bean","Status":null,"Address":"1025 Rossi Road","State":"CA","Locality":null,"Zip":"93465","Country":"United States (US)","PhoneNumbers":["1-209-603-4740",""],"Website":"https:\/\/thehumanbean.com\/location\/the-human-bean-1025-rossi-rd-templeton-ca\/","Emails":["b&#111;b&#64;&#109;os&#115;&#108;&#97;ne&#118;e&#110;&#116;&#117;re&#115;&#46;co&#109;"],"Latitude":35.5410564,"Longitude":-120.7158066,"scrape_datetime":1665257704299,"scrape_domain":"thehumanbean.com","scrape_store_name":"The Human Bean"},{"Name":"CA &#8211; Tulare, Mooney Blvd","Brand":"The Human Bean","Status":null,"Address":"942 S. Mooney Blvd.","State":"CA","Locality":null,"Zip":"93274","Country":"United States (US)","PhoneNumbers":["1-559-686-1001",""],"Website":"https:\/\/thehumanbean.com\/location\/the-human-bean-942-s-mooney-blvd-tulare-ca-93274\/","Emails":["T&#104;e&#104;&#117;&#109;an&#98;e&#97;n&#46;&#115;h&#97;ne&#105;&#108;&#100;e&#108;&#103;ad&#111;&#64;&#103;ma&#105;l&#46;&#99;o&#109;"],"Latitude":36.1978548,"Longitude":-119.3125879,"scrape_datetime":1665257704299,"scrape_domain":"thehumanbean.com","scrape_store_name":"The Human Bean"},{"Name":"CA &#8211; Visalia, N Ben Maddox Way","Brand":"The Human Bean","Status":null,"Address":"1109 N. Ben Maddox Way","State":"CA","Locality":null,"Zip":"93292","Country":"United States (US)","PhoneNumbers":["1-559-372-7195",""],"Website":"https:\/\/thehumanbean.com\/location\/the-human-bean-1109-n-ben-maddox-visalia\/","Emails":["T&#104;eh&#117;&#109;&#97;&#110;bean.shan&#101;&#105;&#108;&#100;&#101;lga&#100;&#111;&#64;&#103;m&#97;&#105;l.co&#109;"],"Latitude":36.339294,"Longitude":-119.279463,"scrape_datetime":1665257704299,"scrape_domain":"thehumanbean.com","scrape_store_name":"The Human Bean"},{"Name":"CA &#8211; Visalia, W Caldwell Ave","Brand":"The Human Bean","Status":null,"Address":"1331 West Caldwell Ave.","State":"CA","Locality":null,"Zip":"93277","Country":"United States (US)","PhoneNumbers":["1-559-738-8872",""],"Website":"https:\/\/thehumanbean.com\/location\/human-bean-1331-w-caldwell-ave-visalia-ca-93277\/","Emails":["Th&#101;&#104;&#117;&#109;anb&#101;a&#110;&#46;&#115;&#104;ane&#105;&#108;d&#101;&#108;ga&#100;o&#64;g&#109;ail.&#99;om"],"Latitude":36.2978049,"Longitude":-119.3055,"scrape_datetime":1665257704299,"scrape_domain":"thehumanbean.com","scrape_store_name":"The Human Bean"},{"Name":"CO &#8211; Clifton, F. Rd.","Brand":"The Human Bean","Status":null,"Address":"3222 F Road","State":"CO","Locality":null,"Zip":"81520","Country":"United States (US)","PhoneNumbers":["1-888-262-2215",""],"Website":"https:\/\/thehumanbean.com\/location\/the-human-bean-3222-f-road-clifton-co\/","Emails":["j&#97;&#99;k&#115;o&#110;be&#110;&#110;&#101;tt&#64;&#103;&#109;ai&#108;&#46;c&#111;&#109;"],"Latitude":39.0921359,"Longitude":-108.4553082,"scrape_datetime":1665257704299,"scrape_domain":"thehumanbean.com","scrape_store_name":"The Human Bean"},{"Name":"CO &#8211; Colorado Springs, E. Platte Ave.","Brand":"The Human Bean","Status":null,"Address":"2900 E. Platte Ave.","State":"CO","Locality":null,"Zip":"80909","Country":"United States (US)","PhoneNumbers":["1-888-262-2215",""],"Website":"https:\/\/thehumanbean.com\/location\/the-human-bean-2900-e-platte-ave-colorado-springs-co\/","Emails":["h&#117;&#109;a&#110;b&#101;a&#110;&#99;os&#64;g&#109;&#97;&#105;l.com"],"Latitude":38.840173,"Longitude":-104.774184,"scrape_datetime":1665257704299,"scrape_domain":"thehumanbean.com","scrape_store_name":"The Human Bean"},{"Name":"CO &#8211; Colorado Springs, N Academy Blvd","Brand":"The Human Bean","Status":null,"Address":"3327 N. Academy Blvd.","State":"CO","Locality":null,"Zip":"80917","Country":"United States (US)","PhoneNumbers":["1-719-247-9801",""],"Website":"https:\/\/thehumanbean.com\/location\/the-human-bean-312-south-8th-st-colorado-springs-co\/","Emails":["hu&#109;a&#110;&#98;e&#97;nco&#115;&#64;g&#109;&#97;&#105;l&#46;com"],"Latitude":38.8806685,"Longitude":-104.7557802,"scrape_datetime":1665257704299,"scrape_domain":"thehumanbean.com","scrape_store_name":"The Human Bean"},{"Name":"CO &#8211; Denver, Pecos St.","Brand":"The Human Bean","Status":null,"Address":"6871 Pecos Street","State":"CO","Locality":null,"Zip":"80221","Country":"United States (US)","PhoneNumbers":["1-888-262-2215",""],"Website":"https:\/\/thehumanbean.com\/location\/the-human-bean-6871-pecos-street-denver-co\/","Emails":["i&#110;fo&#64;b&#117;c&#107;-n&#45;&#98;ean&#46;&#99;om"],"Latitude":39.8213185,"Longitude":-105.0067064,"scrape_datetime":1665257704299,"scrape_domain":"thehumanbean.com","scrape_store_name":"The Human Bean"},{"Name":"CO &#8211; Evans, 23rd St","Brand":"The Human Bean","Status":null,"Address":"3310 23rd St.","State":"CO","Locality":null,"Zip":"80620","Country":"United States (US)","PhoneNumbers":["1-970-330-5792",""],"Website":"https:\/\/thehumanbean.com\/location\/human-bean-3310-23rd-st-evans-colorado\/","Emails":["je&#110;a&#101;&#64;&#104;u&#109;&#97;&#110;&#98;&#101;&#97;n&#110;&#111;&#114;t&#104;&#101;&#114;&#110;&#99;&#111;lo&#114;a&#100;&#111;&#46;co&#109;"],"Latitude":40.4011491,"Longitude":-104.7337962,"scrape_datetime":1665257704299,"scrape_domain":"thehumanbean.com","scrape_store_name":"The Human Bean"},{"Name":"CO &#8211; Fort Collins, N College Ave","Brand":"The Human Bean","Status":null,"Address":"821 N. College","State":"CO","Locality":null,"Zip":"80524","Country":"United States (US)","PhoneNumbers":["1-970-490-2326",""],"Website":"https:\/\/thehumanbean.com\/location\/human-bean-821-n-college-fort-collins-colorado\/","Emails":["je&#110;&#97;e&#64;&#104;&#117;&#109;a&#110;&#98;&#101;&#97;nn&#111;r&#116;he&#114;&#110;&#99;ol&#111;&#114;a&#100;o.&#99;o&#109;"],"Latitude":40.59832935,"Longitude":-105.0772483,"scrape_datetime":1665257704299,"scrape_domain":"thehumanbean.com","scrape_store_name":"The Human Bean"},{"Name":"CO &#8211; Fort Collins, S College Ave","Brand":"The Human Bean","Status":null,"Address":"1822 S. College Ave","State":"CO","Locality":null,"Zip":"80525","Country":"United States (US)","PhoneNumbers":["1-970-416-5703",""],"Website":"https:\/\/thehumanbean.com\/location\/human-bean-1822-s-college-ave-fort-collins-colorado\/","Emails":["j&#101;&#110;a&#101;&#64;hum&#97;&#110;b&#101;a&#110;&#110;o&#114;t&#104;e&#114;&#110;co&#108;orado&#46;&#99;&#111;&#109;"],"Latitude":40.56232229,"Longitude":-105.0764518,"scrape_datetime":1665257704299,"scrape_domain":"thehumanbean.com","scrape_store_name":"The Human Bean"},{"Name":"CO &#8211; Grand Junction, N. Academy Blvd.","Brand":"The Human Bean","Status":null,"Address":"2401 North Ave","State":"CO","Locality":null,"Zip":"81501","Country":"United States (US)","PhoneNumbers":["",""],"Website":"https:\/\/thehumanbean.com\/location\/co-grand-junction-n-academy-blvd\/","Emails":["jack&#115;&#111;nben&#110;&#101;t&#116;&#64;&#103;&#109;&#97;i&#108;&#46;co&#109;"],"Latitude":39.0766125,"Longitude":-108.5370407,"scrape_datetime":1665257704299,"scrape_domain":"thehumanbean.com","scrape_store_name":"The Human Bean"},{"Name":"CO &#8211; Greeley, W 10th St (1)","Brand":"The Human Bean","Status":null,"Address":"3665 W. 10th","State":"CO","Locality":null,"Zip":"80634","Country":"United States (US)","PhoneNumbers":["1-970-356-4245",""],"Website":"https:\/\/thehumanbean.com\/location\/human-bean-3665-w-10th-greeley-colorado\/","Emails":["&#106;e&#110;a&#101;&#64;&#104;u&#109;a&#110;bea&#110;&#110;&#111;rt&#104;&#101;r&#110;co&#108;or&#97;do&#46;&#99;&#111;&#109;"],"Latitude":40.4228679,"Longitude":-104.739937,"scrape_datetime":1665257704299,"scrape_domain":"thehumanbean.com","scrape_store_name":"The Human Bean"},{"Name":"CO &#8211; Greeley, W 10th St (2)","Brand":"The Human Bean","Status":null,"Address":"2610 W 10th St","State":"CO","Locality":null,"Zip":"80634","Country":"United States (US)","PhoneNumbers":["1-970-352-3606",""],"Website":"https:\/\/thehumanbean.com\/location\/human-bean-2610-w-10th-st-greeley-colorado\/","Emails":["je&#110;a&#101;&#64;&#104;u&#109;&#97;n&#98;e&#97;n&#110;o&#114;the&#114;nco&#108;&#111;&#114;&#97;do.com"],"Latitude":40.42252808,"Longitude":-104.7234481,"scrape_datetime":1665257704299,"scrape_domain":"thehumanbean.com","scrape_store_name":"The Human Bean"},{"Name":"CO &#8211; Greeley, W 29th St","Brand":"The Human Bean","Status":null,"Address":"6505 W. 29th St.","State":"CO","Locality":null,"Zip":"80634","Country":"United States (US)","PhoneNumbers":["1-970-939-5660",""],"Website":"https:\/\/thehumanbean.com\/location\/human-bean-st-michaels-square\/","Emails":["&#106;enae&#64;&#104;uman&#98;e&#97;&#110;n&#111;rt&#104;ernc&#111;&#108;o&#114;&#97;d&#111;.com"],"Latitude":40.3897151,"Longitude":-104.7854241,"scrape_datetime":1665257704299,"scrape_domain":"thehumanbean.com","scrape_store_name":"The Human Bean"},{"Name":"CO &#8211; La Salle, S Second St","Brand":"The Human Bean","Status":null,"Address":"100 S. Second St.","State":"CO","Locality":null,"Zip":"80645","Country":"United States (US)","PhoneNumbers":["1-970-284-6890",""],"Website":"https:\/\/thehumanbean.com\/location\/human-bean-100-s-second-st-la-salle-colorado\/","Emails":["&#106;e&#110;&#97;e&#64;h&#117;&#109;a&#110;&#98;e&#97;&#110;&#110;ortherncol&#111;&#114;&#97;&#100;&#111;.&#99;&#111;m"],"Latitude":40.34993062,"Longitude":-104.7040173,"scrape_datetime":1665257704299,"scrape_domain":"thehumanbean.com","scrape_store_name":"The Human Bean"},{"Name":"CO &#8211; Loveland, E Crossroads Blvd","Brand":"The Human Bean","Status":null,"Address":"6180 E. Crossroads Blvd","State":"CO","Locality":null,"Zip":"80538","Country":"United States (US)","PhoneNumbers":["1-970-776-9647",""],"Website":"https:\/\/thehumanbean.com\/location\/human-bean-6180-e-crossroads-blvd-loveland-colorado\/","Emails":["j&#101;&#110;a&#101;&#64;&#104;uma&#110;&#98;ea&#110;n&#111;rthe&#114;&#110;colo&#114;&#97;d&#111;.co&#109;"],"Latitude":40.43556462,"Longitude":-104.9859394,"scrape_datetime":1665257704299,"scrape_domain":"thehumanbean.com","scrape_store_name":"The Human Bean"},{"Name":"CO &#8211; Wellington, 6th St","Brand":"The Human Bean","Status":null,"Address":"8121 6th St.","State":"CO","Locality":null,"Zip":"80549","Country":"United States (US)","PhoneNumbers":["1-970-818-0717",""],"Website":"https:\/\/thehumanbean.com\/location\/the-human-bean-8121-8th-ave-wellington-co\/","Emails":["&#106;&#101;&#110;a&#101;&#64;hu&#109;a&#110;bea&#110;&#110;or&#116;&#104;&#101;r&#110;co&#108;ora&#100;&#111;.&#99;o&#109;"],"Latitude":40.7032637,"Longitude":-105.0010915,"scrape_datetime":1665257704299,"scrape_domain":"thehumanbean.com","scrape_store_name":"The Human Bean"},{"Name":"CO &#8211; Windsor, E Main St","Brand":"The Human Bean","Status":null,"Address":"405 East Main St.","State":"CO","Locality":null,"Zip":"80550","Country":"United States (US)","PhoneNumbers":["1-970-460-9805",""],"Website":"https:\/\/thehumanbean.com\/location\/human-bean-405-east-main-st-windsor-colorado\/","Emails":["je&#110;&#97;e&#64;&#104;u&#109;&#97;nbe&#97;n&#110;&#111;&#114;&#116;&#104;&#101;&#114;&#110;&#99;o&#108;&#111;&#114;&#97;&#100;o&#46;c&#111;m"],"Latitude":40.47938373,"Longitude":-104.8863161,"scrape_datetime":1665257704299,"scrape_domain":"thehumanbean.com","scrape_store_name":"The Human Bean"},{"Name":"CO &#8211; Woodland Park, E US Hwy 24","Brand":"The Human Bean","Status":null,"Address":"275 East US HWY 24","State":"CO","Locality":null,"Zip":"80863","Country":"United States (US)","PhoneNumbers":["1-719-922-4210",""],"Website":"https:\/\/thehumanbean.com\/location\/human-bean-275-east-us-hwy-24-woodland-park-colorado-80863\/","Emails":["&#104;&#117;m&#97;nb&#101;&#97;nw&#112;&#64;g&#109;&#97;&#105;&#108;&#46;co&#109;"],"Latitude":38.9924819,"Longitude":-105.0498127,"scrape_datetime":1665257704299,"scrape_domain":"thehumanbean.com","scrape_store_name":"The Human Bean"},{"Name":"FL &#8211; Lake City, W US HWY 90","Brand":"The Human Bean","Status":null,"Address":"4650 W US HWY 90","State":"FL","Locality":null,"Zip":"32024","Country":"United States (US)","PhoneNumbers":["(386) 438 - 8426",""],"Website":"https:\/\/thehumanbean.com\/location\/the-human-bean-4506-sw-heritage-oaks-cir-lake-city-fl\/","Emails":["g&#97;&#114;&#121;&#64;&#99;a&#112;&#101;&#97;&#109;&#46;c&#111;&#109;"],"Latitude":30.1833576,"Longitude":-82.7069065,"scrape_datetime":1665257704299,"scrape_domain":"thehumanbean.com","scrape_store_name":"The Human Bean"},{"Name":"GA &#8211; Cumming, Buford Hwy","Brand":"The Human Bean","Status":null,"Address":"1605 Buford Hwy.","State":"GA","Locality":null,"Zip":"30040","Country":"United States (US)","PhoneNumbers":["1-404-301-2215",""],"Website":"https:\/\/thehumanbean.com\/location\/the-human-bean-1605-buford-hwy-cumming-ga\/","Emails":["&#116;he&#104;uman&#98;ea&#110;&#97;&#116;&#108;&#64;gma&#105;&#108;&#46;&#99;&#111;&#109;"],"Latitude":34.165068,"Longitude":-84.119241,"scrape_datetime":1665257704299,"scrape_domain":"thehumanbean.com","scrape_store_name":"The Human Bean"},{"Name":"GA &#8211; Dawsonville, S. 400 Center Lane","Brand":"The Human Bean","Status":null,"Address":"320 S. 400 Center Lane","State":"GA","Locality":null,"Zip":"30534","Country":"United States (US)","PhoneNumbers":["706-622-4906",""],"Website":"https:\/\/thehumanbean.com\/location\/the-human-bean-320-s-400-center-lane-dawsonville-ga\/","Emails":["aaron&#64;a&#97;&#114;&#111;nni&#99;&#107;el&#115;on&#46;co&#109;"],"Latitude":34.3615606,"Longitude":-84.0402349,"scrape_datetime":1665257704299,"scrape_domain":"thehumanbean.com","scrape_store_name":"The Human Bean"},{"Name":"ID &#8211; Boise, S Broadway","Brand":"The Human Bean","Status":null,"Address":"2100 S. Broadway","State":"ID","Locality":null,"Zip":"83706","Country":"United States (US)","PhoneNumbers":["1-208-331-8212",""],"Website":"https:\/\/thehumanbean.com\/location\/human-bean-2100-s-broadway-boise-idaho\/","Emails":["jobs&#64;h&#98;&#116;&#114;&#101;&#97;su&#114;&#101;v&#97;&#108;&#108;e&#121;.com"],"Latitude":43.58597453,"Longitude":-116.1933371,"scrape_datetime":1665257704299,"scrape_domain":"thehumanbean.com","scrape_store_name":"The Human Bean"},{"Name":"ID &#8211; Boise, W Chinden","Brand":"The Human Bean","Status":null,"Address":"12473 W. Chinden","State":"ID","Locality":null,"Zip":"83713","Country":"United States (US)","PhoneNumbers":["1-208-323-7246",""],"Website":"https:\/\/thehumanbean.com\/location\/human-bean-12473-w-chinden-boise-idaho\/","Emails":["&#106;&#111;&#98;s&#64;hb&#116;&#114;ea&#115;u&#114;ev&#97;l&#108;&#101;y.&#99;o&#109;"],"Latitude":43.66265749,"Longitude":-116.3378536,"scrape_datetime":1665257704299,"scrape_domain":"thehumanbean.com","scrape_store_name":"The Human Bean"},{"Name":"ID &#8211; Boise, W Emerald St","Brand":"The Human Bean","Status":null,"Address":"9162 W.Emerald St.","State":"ID","Locality":null,"Zip":"83704","Country":"United States (US)","PhoneNumbers":["1-208-376-3457",""],"Website":"https:\/\/thehumanbean.com\/location\/human-bean-9162-w-emerald-st-boise-idaho\/","Emails":["&#106;obs&#64;h&#98;tr&#101;&#97;&#115;u&#114;e&#118;&#97;&#108;l&#101;y.co&#109;"],"Latitude":43.61118097,"Longitude":-116.295624,"scrape_datetime":1665257704299,"scrape_domain":"thehumanbean.com","scrape_store_name":"The Human Bean"},{"Name":"ID &#8211; Boise, W Lake Hazel Rd","Brand":"The Human Bean","Status":null,"Address":"10771 W. Lake Hazel Rd.","State":"ID","Locality":null,"Zip":"83709","Country":"United States (US)","PhoneNumbers":["1-208-362-1159",""],"Website":"https:\/\/thehumanbean.com\/location\/human-bean-10771-w-lake-hazel-rd-boise-idaho-83709\/","Emails":["jo&#98;s&#64;&#104;&#98;&#116;reasu&#114;eval&#108;ey&#46;&#99;om"],"Latitude":43.5462067,"Longitude":-116.3157065,"scrape_datetime":1665257704299,"scrape_domain":"thehumanbean.com","scrape_store_name":"The Human Bean"},{"Name":"ID &#8211; Boise, W State St","Brand":"The Human Bean","Status":null,"Address":"4213 W. State St.","State":"ID","Locality":null,"Zip":"83703","Country":"United States (US)","PhoneNumbers":["1-208-344-1910",""],"Website":"https:\/\/thehumanbean.com\/location\/human-bean-4213-w-state-st-boise-idaho\/","Emails":["&#106;&#111;b&#115;&#64;&#104;bt&#114;ea&#115;&#117;r&#101;&#118;&#97;&#108;l&#101;&#121;&#46;&#99;om"],"Latitude":43.64432,"Longitude":-116.2421831,"scrape_datetime":1665257704299,"scrape_domain":"thehumanbean.com","scrape_store_name":"The Human Bean"},{"Name":"ID &#8211; Caldwell, S 21st Ave","Brand":"The Human Bean","Status":null,"Address":"305 S. 21st. Ave","State":"ID","Locality":null,"Zip":"83605","Country":"United States (US)","PhoneNumbers":["1-208-459-2313",""],"Website":"https:\/\/thehumanbean.com\/location\/human-bean-305-s-21st-ave-caldwell-idaho\/","Emails":["jo&#98;&#115;&#64;&#104;&#98;t&#114;&#101;&#97;&#115;&#117;r&#101;&#118;&#97;&#108;ley.c&#111;m"],"Latitude":43.65534524,"Longitude":-116.6753663,"scrape_datetime":1665257704299,"scrape_domain":"thehumanbean.com","scrape_store_name":"The Human Bean"},{"Name":"ID &#8211; Chubbuck, Yellowstone Ave.","Brand":"The Human Bean","Status":null,"Address":"5209 Yellowstone Avenue","State":"ID","Locality":null,"Zip":"83202","Country":"United States (US)","PhoneNumbers":["",""],"Website":"https:\/\/thehumanbean.com\/location\/id-chubbuck-yellowstone-ave\/","Emails":["theo&#119;a&#114;&#110;er&#64;a&#108;umn&#105;.u&#105;da&#104;o&#46;e&#100;u"],"Latitude":42.9280062,"Longitude":-112.4667919,"scrape_datetime":1665257704299,"scrape_domain":"thehumanbean.com","scrape_store_name":"The Human Bean"},{"Name":"ID &#8211; Coeur D Alene, E Neider","Brand":"The Human Bean","Status":null,"Address":"380 E. Neider","State":"ID","Locality":null,"Zip":"83815","Country":"United States (US)","PhoneNumbers":["1-208-665-3779",""],"Website":"https:\/\/thehumanbean.com\/location\/human-bean-380-e-neider-coeur-d-alene-idaho\/","Emails":["&#97;&#108;&#105;&#99;iaad&#100;&#121;&#64;&#103;m&#97;il&#46;&#99;o&#109;"],"Latitude":47.707728,"Longitude":-116.781603,"scrape_datetime":1665257704299,"scrape_domain":"thehumanbean.com","scrape_store_name":"The Human Bean"},{"Name":"ID &#8211; Garden City, W State St","Brand":"The Human Bean","Status":null,"Address":"10015 W. State St.","State":"ID","Locality":null,"Zip":"83642","Country":"United States (US)","PhoneNumbers":["1-208-853-1373",""],"Website":"https:\/\/thehumanbean.com\/location\/human-bean-10015-w-state-st-garden-city-idaho\/","Emails":["j&#111;&#98;&#115;&#64;&#104;&#98;&#116;reasu&#114;&#101;v&#97;&#108;&#108;&#101;y&#46;&#99;&#111;m"],"Latitude":43.68014676,"Longitude":-116.3079317,"scrape_datetime":1665257704299,"scrape_domain":"thehumanbean.com","scrape_store_name":"The Human Bean"},{"Name":"ID &#8211; Hayden, N Government Way","Brand":"The Human Bean","Status":null,"Address":"8712 N Government Way","State":"ID","Locality":null,"Zip":"83835","Country":"United States (US)","PhoneNumbers":["1-208-772-4446",""],"Website":"https:\/\/thehumanbean.com\/location\/human-bean-8712-n-government-way-hayden-idaho\/","Emails":["a&#108;ic&#105;aaddy&#64;&#103;ma&#105;&#108;.&#99;&#111;&#109;"],"Latitude":47.750886,"Longitude":-116.7858761,"scrape_datetime":1665257704299,"scrape_domain":"thehumanbean.com","scrape_store_name":"The Human Bean"},{"Name":"ID &#8211; Meridian, E Overland Rd","Brand":"The Human Bean","Status":null,"Address":"2480 E. Gala St.","State":"ID","Locality":null,"Zip":"83642","Country":"United States (US)","PhoneNumbers":["1-208-999-3113",""],"Website":"https:\/\/thehumanbean.com\/location\/human-bean-2480-east-gala-st-meridian-idaho\/","Emails":["&#106;&#111;&#98;&#115;&#64;hbtreasure&#118;&#97;&#108;l&#101;y&#46;c&#111;&#109;"],"Latitude":43.5893806,"Longitude":-116.3637674,"scrape_datetime":1665257704299,"scrape_domain":"thehumanbean.com","scrape_store_name":"The Human Bean"},{"Name":"ID &#8211; Meridian, N Meridian Rd","Brand":"The Human Bean","Status":null,"Address":"1635 N Meridian Rd.","State":"ID","Locality":null,"Zip":"83642","Country":"United States (US)","PhoneNumbers":["1-208-887-7731",""],"Website":"https:\/\/thehumanbean.com\/location\/human-bean-1635-n-meridian-rd-meridian-idaho\/","Emails":["jo&#98;&#115;&#64;&#104;&#98;&#116;&#114;&#101;&#97;&#115;ur&#101;va&#108;l&#101;y&#46;c&#111;m"],"Latitude":43.618794,"Longitude":-116.393905,"scrape_datetime":1665257704299,"scrape_domain":"thehumanbean.com","scrape_store_name":"The Human Bean"},{"Name":"ID &#8211; Meridian, Nelis Dr","Brand":"The Human Bean","Status":null,"Address":"3285 W Nelis Dr.","State":"ID","Locality":null,"Zip":"83646","Country":"United States (US)","PhoneNumbers":["1-208-350-6557",""],"Website":"https:\/\/thehumanbean.com\/location\/the-human-bean-3285-w-nelis-dr-meridian-id\/","Emails":["&#106;&#111;bs&#64;hbtre&#97;s&#117;r&#101;v&#97;&#108;&#108;e&#121;&#46;com"],"Latitude":43.6360038,"Longitude":-116.4342344,"scrape_datetime":1665257704299,"scrape_domain":"thehumanbean.com","scrape_store_name":"The Human Bean"},{"Name":"ID &#8211; Nampa, Caldwell Blvd","Brand":"The Human Bean","Status":null,"Address":"2110 Caldwell Blvd.","State":"ID","Locality":null,"Zip":"83651","Country":"United States (US)","PhoneNumbers":["1-208-461-2082",""],"Website":"https:\/\/thehumanbean.com\/location\/human-bean-2110-caldwell-blvd-nampa-idaho\/","Emails":["&#106;&#111;&#98;&#115;&#64;&#104;b&#116;&#114;easur&#101;&#118;a&#108;&#108;e&#121;.&#99;o&#109;"],"Latitude":43.60852044,"Longitude":-116.6064657,"scrape_datetime":1665257704299,"scrape_domain":"thehumanbean.com","scrape_store_name":"The Human Bean"},{"Name":"ID &#8211; Star, W State St","Brand":"The Human Bean","Status":null,"Address":"11633 West State Street","State":"ID","Locality":null,"Zip":"83669","Country":"United States (US)","PhoneNumbers":["1-208-629-4637",""],"Website":"https:\/\/thehumanbean.com\/location\/human-bean-11633-west-state-street-star-idaho-83669\/","Emails":["j&#111;bs&#64;&#104;&#98;&#116;r&#101;&#97;su&#114;e&#118;&#97;l&#108;ey.&#99;&#111;m"],"Latitude":43.691565,"Longitude":-116.498818,"scrape_datetime":1665257704299,"scrape_domain":"thehumanbean.com","scrape_store_name":"The Human Bean"},{"Name":"ID &#8211; Twin Falls, Addison Ave","Brand":"The Human Bean","Status":null,"Address":"161 Addison Ave.","State":"ID","Locality":null,"Zip":"83301","Country":"United States (US)","PhoneNumbers":["1-208-595-1261",""],"Website":"https:\/\/thehumanbean.com\/location\/161-addison-e-twin-falls-id-83301\/","Emails":["&#109;v&#116;h&#98;_&#49;2&#51;4&#64;&#104;o&#116;m&#97;il&#46;c&#111;&#109;"],"Latitude":42.5631601,"Longitude":-114.4781787,"scrape_datetime":1665257704299,"scrape_domain":"thehumanbean.com","scrape_store_name":"The Human Bean"},{"Name":"ID &#8211; Twin Falls, E. Falls Ave.","Brand":"The Human Bean","Status":null,"Address":"1241 E. Falls Ave.","State":"ID","Locality":null,"Zip":"83301","Country":"United States (US)","PhoneNumbers":["1-888-262-2215",""],"Website":"https:\/\/thehumanbean.com\/location\/the-human-bean-1241-e-falls-avenue-twin-falls-id\/","Emails":["&#115;&#116;&#114;&#111;op6&#53;&#64;&#104;&#111;&#116;&#109;a&#105;&#108;&#46;&#99;o&#109;"],"Latitude":42.5780123,"Longitude":-114.4580666,"scrape_datetime":1665257704299,"scrape_domain":"thehumanbean.com","scrape_store_name":"The Human Bean"},{"Name":"IL &#8211; Effingham, 406 N. Keller","Brand":"The Human Bean","Status":null,"Address":"406 N. Keller Dr.","State":"IL","Locality":null,"Zip":"62401","Country":"United States (US)","PhoneNumbers":["217-342-0319",""],"Website":"https:\/\/thehumanbean.com\/location\/the-human-bean-406-n-keller-effingham-il\/","Emails":["&#116;hbe&#102;&#102;in&#103;&#104;am&#64;g&#109;&#97;i&#108;.&#99;&#111;m"],"Latitude":39.1255966,"Longitude":-88.5572483,"scrape_datetime":1665257704299,"scrape_domain":"thehumanbean.com","scrape_store_name":"The Human Bean"},{"Name":"IN &#8211; Indianapolis, Keystone Ave","Brand":"The Human Bean","Status":null,"Address":"5405 N. Keystone Avenue","State":"IN","Locality":null,"Zip":"46220","Country":"United States (US)","PhoneNumbers":["1-317-384-1362",""],"Website":"https:\/\/thehumanbean.com\/location\/the-human-bean-5405-n-keystone-ave-indianapolis-in\/","Emails":["me&#108;in&#100;aro&#119;an&#64;&#103;&#109;&#97;&#105;&#108;.com"],"Latitude":39.8516401,"Longitude":-86.1217043,"scrape_datetime":1665257704299,"scrape_domain":"thehumanbean.com","scrape_store_name":"The Human Bean"},{"Name":"KY &#8211; Lexington, Harrodsburg Rd","Brand":"The Human Bean","Status":null,"Address":"1946 Harrodsburg Rd.","State":"KY","Locality":null,"Zip":"40503","Country":"United States (US)","PhoneNumbers":["1-859-523-1301",""],"Website":"https:\/\/thehumanbean.com\/location\/lexington\/","Emails":["&#97;k&#97;&#115;&#104;.&#104;ira&#64;o&#117;t&#108;&#111;&#111;k.&#99;&#111;m"],"Latitude":38.027136,"Longitude":-84.533237,"scrape_datetime":1665257704299,"scrape_domain":"thehumanbean.com","scrape_store_name":"The Human Bean"},{"Name":"KY &#8211; Lexington, Richmond Rd.","Brand":"The Human Bean","Status":null,"Address":"2644 Richmond Rd.","State":"KY","Locality":null,"Zip":"40509","Country":"United States (US)","PhoneNumbers":["",""],"Website":"https:\/\/thehumanbean.com\/location\/ky-lexington-richmond-rd\/","Emails":["&#97;k&#97;&#115;&#104;.&#104;ira&#64;ou&#116;&#108;&#111;&#111;k&#46;&#99;&#111;&#109;"],"Latitude":38.0095894,"Longitude":-84.4554771,"scrape_datetime":1665257704299,"scrape_domain":"thehumanbean.com","scrape_store_name":"The Human Bean"},{"Name":"MD &#8211; Pasadena, Fort Smallwood Rd.","Brand":"The Human Bean","Status":null,"Address":"8553 Fort Smallwood Rd.","State":"MD","Locality":null,"Zip":"21122","Country":"United States (US)","PhoneNumbers":["1-888-262-2215",""],"Website":"https:\/\/thehumanbean.com\/location\/the-human-bean-8553-fort-smallwood-rd-pasadena-md\/","Emails":["gl&#101;n&#110;&#46;&#116;&#104;&#101;hu&#109;anb&#101;&#97;n&#64;&#103;mail&#46;c&#111;m"],"Latitude":39.1532794,"Longitude":-76.5185419,"scrape_datetime":1665257704299,"scrape_domain":"thehumanbean.com","scrape_store_name":"The Human Bean"},{"Name":"MO &#8211; St. Joseph, Commons Dr","Brand":"The Human Bean","Status":null,"Address":"4414 Commons Dr.","State":"MO","Locality":null,"Zip":"64503","Country":"United States (US)","PhoneNumbers":["1-816-259-5282",""],"Website":"https:\/\/thehumanbean.com\/location\/human-bean-4414-commons-dr-st-joseph-missouri\/","Emails":["j&#97;&#114;&#114;&#101;&#116;t&#64;hu&#109;anb&#101;&#97;nst&#106;&#111;&#101;.&#99;om"],"Latitude":39.72403106,"Longitude":-94.79245499,"scrape_datetime":1665257704299,"scrape_domain":"thehumanbean.com","scrape_store_name":"The Human Bean"},{"Name":"NC &#8211; Charlotte, Mt Holly Rd","Brand":"The Human Bean","Status":null,"Address":"8156 Mt. Holly-Huntersville Rd.","State":"NC","Locality":null,"Zip":"28216","Country":"United States (US)","PhoneNumbers":["1-980-355-0364",""],"Website":"https:\/\/thehumanbean.com\/location\/the-human-bean-8156-mt-holly-huntersville-rd-charlotte-nc\/","Emails":["&#103;ary&#64;&#99;&#97;pe&#97;&#109;.c&#111;m"],"Latitude":35.3458012,"Longitude":-80.887222,"scrape_datetime":1665257704299,"scrape_domain":"thehumanbean.com","scrape_store_name":"The Human Bean"},{"Name":"NC &#8211; Gastonia, Hoffman Rd.","Brand":"The Human Bean","Status":null,"Address":"1957 Hoffman Road","State":"NC","Locality":null,"Zip":"28054","Country":"United States (US)","PhoneNumbers":["1-888-262-2215",""],"Website":"https:\/\/thehumanbean.com\/location\/the-human-bean-1957-hoffman-road-gastonia-nc\/","Emails":["gar&#121;&#64;&#99;a&#112;ea&#109;&#46;c&#111;&#109;"],"Latitude":35.224094,"Longitude":-81.132504,"scrape_datetime":1665257704299,"scrape_domain":"thehumanbean.com","scrape_store_name":"The Human Bean"},{"Name":"NC &#8211; Gastonia, S New Hope Rd","Brand":"The Human Bean","Status":null,"Address":"3648 South New Hope Road","State":"NC","Locality":null,"Zip":"28056","Country":"United States (US)","PhoneNumbers":["1-704-879-7712",""],"Website":"https:\/\/thehumanbean.com\/location\/human-bean-gastonia-north-carolina-28056\/","Emails":["g&#97;r&#121;&#64;&#99;a&#112;&#101;am&#46;c&#111;m"],"Latitude":35.2232011,"Longitude":-81.1021299,"scrape_datetime":1665257704299,"scrape_domain":"thehumanbean.com","scrape_store_name":"The Human Bean"},{"Name":"NC &#8211; Morganton, N Green St","Brand":"The Human Bean","Status":null,"Address":"853 N. Green St.","State":"NC","Locality":null,"Zip":"28655","Country":"United States (US)","PhoneNumbers":["1-828-764-4034",""],"Website":"https:\/\/thehumanbean.com\/location\/the-human-bean-853-n-green-st-morganton-nc\/","Emails":["ga&#114;&#121;&#64;ca&#112;ea&#109;.&#99;om"],"Latitude":35.7518207673,"Longitude":-81.712365795,"scrape_datetime":1665257704299,"scrape_domain":"thehumanbean.com","scrape_store_name":"The Human Bean"},{"Name":"NC &#8211; South Concord, 3695 Concord Pkwy","Brand":"The Human Bean","Status":null,"Address":"3695 Concord Parkway","State":"NC","Locality":null,"Zip":"28027","Country":"United States (US)","PhoneNumbers":["980-439-5013",""],"Website":"https:\/\/thehumanbean.com\/location\/nc-south-concord-3673-concord-pkwy\/","Emails":["ga&#114;&#121;&#64;&#99;&#97;&#112;ea&#109;.c&#111;&#109;"],"Latitude":35.3705019,"Longitude":-80.6651996,"scrape_datetime":1665257704299,"scrape_domain":"thehumanbean.com","scrape_store_name":"The Human Bean"},{"Name":"NM &#8211; Albuquerque, Unser Blvd SW","Brand":"The Human Bean","Status":null,"Address":"1300 Unser Blvd. SW","State":"NM","Locality":null,"Zip":"87121","Country":"United States (US)","PhoneNumbers":["1-505-208-0755",""],"Website":"https:\/\/thehumanbean.com\/location\/the-human-bean-1300-unser-blvd-sw-albuquerque-nm\/","Emails":["H&#117;&#109;&#97;n&#66;ea&#110;&#78;M&#64;g&#109;&#97;&#105;&#108;&#46;&#99;o&#109;"],"Latitude":35.05760907,"Longitude":-106.7212465,"scrape_datetime":1665257704299,"scrape_domain":"thehumanbean.com","scrape_store_name":"The Human Bean"},{"Name":"NV &#8211; Carson City, Hwy 50 E","Brand":"The Human Bean","Status":null,"Address":"3300 Lincoln Highway","State":"NV","Locality":null,"Zip":"89701","Country":"United States (US)","PhoneNumbers":["1-775-461-0067",""],"Website":"https:\/\/thehumanbean.com\/location\/human-bean-3420-hwy-50-east-carson-city-nevada-89423\/","Emails":["&#99;h&#114;is&#115;yco&#110;&#97;&#116;&#115;&#101;r&#64;gm&#97;il&#46;&#99;o&#109;"],"Latitude":39.17754116,"Longitude":-119.7316594,"scrape_datetime":1665257704299,"scrape_domain":"thehumanbean.com","scrape_store_name":"The Human Bean"},{"Name":"NV &#8211; Henderson, Lake Mead Pkwy","Brand":"The Human Bean","Status":null,"Address":"71 East Lake Mead Parkway","State":"NV","Locality":null,"Zip":"89015","Country":"United States (US)","PhoneNumbers":["1-702-476-3078",""],"Website":"https:\/\/thehumanbean.com\/location\/human-bean-71-east-lake-mead-parkway-henderson-nevada\/","Emails":["LVHB&#101;&#97;n&#64;g&#109;&#97;il.c&#111;&#109;"],"Latitude":36.037761,"Longitude":-114.9840065,"scrape_datetime":1665257704299,"scrape_domain":"thehumanbean.com","scrape_store_name":"The Human Bean"},{"Name":"NV &#8211; Las Vegas, Camino Al Norte","Brand":"The Human Bean","Status":null,"Address":"5265 Camino Al Norte","State":"NV","Locality":null,"Zip":"89031","Country":"United States (US)","PhoneNumbers":["1-702-399-6300",""],"Website":"https:\/\/thehumanbean.com\/location\/human-bean-5265-camino-al-norte-las-vegas-nevada\/","Emails":["t&#104;&#101;&#104;&#117;m&#97;n&#98;&#101;anla&#115;vegas&#64;gm&#97;&#105;l.&#99;&#111;&#109;"],"Latitude":36.25523719,"Longitude":-115.1538832,"scrape_datetime":1665257704299,"scrape_domain":"thehumanbean.com","scrape_store_name":"The Human Bean"},{"Name":"NV &#8211; Las Vegas, E. Sahara Ave.","Brand":"The Human Bean","Status":null,"Address":"5060 East Sahara Avenue","State":"NV","Locality":null,"Zip":"89142","Country":"United States (US)","PhoneNumbers":["1-888-262-2215",""],"Website":"https:\/\/thehumanbean.com\/location\/the-human-bean-5060-east-sahara-avenue-las-vegas-nv\/","Emails":["jo&#104;n&#64;&#97;l&#97;ma&#110;d&#107;&#104;&#97;n.co&#109;"],"Latitude":36.1447671,"Longitude":-115.0641604,"scrape_datetime":1665257704299,"scrape_domain":"thehumanbean.com","scrape_store_name":"The Human Bean"},{"Name":"NV &#8211; Las Vegas, W. Charleston","Brand":"The Human Bean","Status":null,"Address":"5600 W Charleston","State":"NV","Locality":null,"Zip":"89146","Country":"United States (US)","PhoneNumbers":["",""],"Website":"https:\/\/thehumanbean.com\/location\/nv-las-vegas-w-charleston\/","Emails":["ard&#121;&#115;&#64;socl&#101;a&#110;&#108;&#118;&#46;&#99;o&#109;"],"Latitude":36.1593201,"Longitude":-115.2183361,"scrape_datetime":1665257704299,"scrape_domain":"thehumanbean.com","scrape_store_name":"The Human Bean"},{"Name":"NV &#8211; Minden, Hwy 395","Brand":"The Human Bean","Status":null,"Address":"1654 HWY 395","State":"NV","Locality":null,"Zip":"89423","Country":"United States (US)","PhoneNumbers":["1-775-392-4578",""],"Website":"https:\/\/thehumanbean.com\/location\/human-bean-16523-hwy-395-minden-nevada-89423\/","Emails":["c&#104;ri&#115;&#115;ycon&#97;t&#115;e&#114;&#64;gma&#105;&#108;.&#99;&#111;&#109;"],"Latitude":38.9575976,"Longitude":-119.7724931,"scrape_datetime":1665257704299,"scrape_domain":"thehumanbean.com","scrape_store_name":"The Human Bean"},{"Name":"NV &#8211; Reno, Kietzke Ln","Brand":"The Human Bean","Status":null,"Address":"3380 Kietzke Lane","State":"NV","Locality":null,"Zip":"89502","Country":"United States (US)","PhoneNumbers":["775-413-3250",""],"Website":"https:\/\/thehumanbean.com\/location\/3380-kietzke-lane-reno-nv-89502\/","Emails":["n&#97;t&#97;s&#104;a&#108;&#121;nth&#111;&#109;&#97;s&#64;&#103;m&#97;&#105;l&#46;c&#111;&#109;"],"Latitude":39.4919984,"Longitude":-119.7891419,"scrape_datetime":1665257704299,"scrape_domain":"thehumanbean.com","scrape_store_name":"The Human Bean"},{"Name":"NV &#8211; Reno, S McCarran Blvd","Brand":"The Human Bean","Status":null,"Address":"3915 South McCarran Blvd.","State":"NV","Locality":null,"Zip":"89502","Country":"United States (US)","PhoneNumbers":["775-413-3250",""],"Website":"https:\/\/thehumanbean.com\/location\/human-bean-3915-south-mccarran-blvd-reno-nevada\/","Emails":["&#110;&#97;&#116;&#97;&#115;ha&#108;&#121;ntho&#109;as&#64;gm&#97;&#105;l&#46;c&#111;m"],"Latitude":39.47722239,"Longitude":-119.764258,"scrape_datetime":1665257704299,"scrape_domain":"thehumanbean.com","scrape_store_name":"The Human Bean"},{"Name":"NV &#8211; Reno, S Virginia","Brand":"The Human Bean","Status":null,"Address":"8050 S. Virginia St","State":"NV","Locality":null,"Zip":"89502","Country":"United States (US)","PhoneNumbers":["775-413-3250",""],"Website":"https:\/\/thehumanbean.com\/location\/human-bean-8050-s-virginia-reno-nevada\/","Emails":["&#110;&#97;t&#97;s&#104;&#97;&#108;&#121;&#110;t&#104;&#111;&#109;as&#64;&#103;&#109;&#97;&#105;&#108;.c&#111;m"],"Latitude":39.45430808,"Longitude":-119.7777196,"scrape_datetime":1665257704299,"scrape_domain":"thehumanbean.com","scrape_store_name":"The Human Bean"},{"Name":"NV &#8211; Sparks, Holman Way","Brand":"The Human Bean","Status":null,"Address":"800 Holman Way","State":"NV","Locality":null,"Zip":"89431","Country":"United States (US)","PhoneNumbers":["775-413-3250",""],"Website":"https:\/\/thehumanbean.com\/location\/the-human-bean-800-holman-way-sparks-nv\/","Emails":["&#110;&#97;ta&#115;haly&#110;t&#104;o&#109;a&#115;&#64;&#103;m&#97;i&#108;&#46;com"],"Latitude":39.549281,"Longitude":-119.7526961,"scrape_datetime":1665257704299,"scrape_domain":"thehumanbean.com","scrape_store_name":"The Human Bean"},{"Name":"OH &#8211; Brunswick, Center Rd.","Brand":"The Human Bean","Status":null,"Address":"3479 Center Rd.","State":"OH","Locality":null,"Zip":"44212","Country":"United States (US)","PhoneNumbers":["234-803-3201",""],"Website":"https:\/\/thehumanbean.com\/location\/the-human-bean-3479-center-rd-brunswick-oh\/","Emails":["&#107;yl&#101;.n&#111;&#116;&#104;&#110;&#97;ge&#108;&#64;g&#109;ail.&#99;om"],"Latitude":41.2382861,"Longitude":-81.8113289,"scrape_datetime":1665257704299,"scrape_domain":"thehumanbean.com","scrape_store_name":"The Human Bean"},{"Name":"OH &#8211; Canton, Tuscarawas W. St.","Brand":"The Human Bean","Status":null,"Address":"4664 Tuscarawas W. St.","State":"OH","Locality":null,"Zip":"44708","Country":"United States (US)","PhoneNumbers":["1-888-262-2215",""],"Website":"https:\/\/thehumanbean.com\/location\/the-human-bean-4664-tuscarawas-w-st-canton-oh\/","Emails":["&#114;on&#119;&#46;&#104;boh&#64;&#103;&#109;ai&#108;&#46;com"],"Latitude":40.7947176,"Longitude":-81.433212,"scrape_datetime":1665257704299,"scrape_domain":"thehumanbean.com","scrape_store_name":"The Human Bean"},{"Name":"OH &#8211; Canton, Whipple Ave NW","Brand":"The Human Bean","Status":null,"Address":"4301 Whipple Ave NW","State":"OH","Locality":null,"Zip":"44718","Country":"United States (US)","PhoneNumbers":["1-330-754-6750",""],"Website":"https:\/\/thehumanbean.com\/location\/human-bean-4301-whipple-ave-nw-canton-ohio\/","Emails":["ro&#110;&#119;.&#104;&#98;&#111;&#104;&#64;gmail.co&#109;"],"Latitude":40.84797839,"Longitude":-81.42403113,"scrape_datetime":1665257704299,"scrape_domain":"thehumanbean.com","scrape_store_name":"The Human Bean"},{"Name":"OH &#8211; Green, Massillon Road","Brand":"The Human Bean","Status":null,"Address":"3532 Massillon Road","State":"OH","Locality":null,"Zip":"44685","Country":"United States (US)","PhoneNumbers":["1-888-262-2215",""],"Website":"https:\/\/thehumanbean.com\/location\/the-human-bean-3532-massillon-road-uniontown-oh\/","Emails":["&#114;&#111;n.&#104;&#98;o&#104;&#64;g&#109;&#97;&#105;l.&#99;&#111;&#109;"],"Latitude":40.9657738,"Longitude":-81.465704,"scrape_datetime":1665257704299,"scrape_domain":"thehumanbean.com","scrape_store_name":"The Human Bean"},{"Name":"OH &#8211; Kent, E. Main St.","Brand":"The Human Bean","Status":null,"Address":"1713 E. Main St.","State":"OH","Locality":null,"Zip":"44240","Country":"United States (US)","PhoneNumbers":["330-968-3004",""],"Website":"https:\/\/thehumanbean.com\/location\/oh-kent-e-main-st\/","Emails":["r&#111;nw.&#104;b&#111;&#104;&#64;gmail.&#99;o&#109;"],"Latitude":41.1550043,"Longitude":-81.3320878,"scrape_datetime":1665257704299,"scrape_domain":"thehumanbean.com","scrape_store_name":"The Human Bean"},{"Name":"OH &#8211; Streetsboro, State Rt 43","Brand":"The Human Bean","Status":null,"Address":"9215 State Route 43","State":"OH","Locality":null,"Zip":"44241","Country":"United States (US)","PhoneNumbers":["1-330-968-6797",""],"Website":"https:\/\/thehumanbean.com\/location\/the-human-bean-9215-state-route-43-streetsboro-oh\/","Emails":["&#114;&#111;&#110;w&#46;&#104;boh&#64;&#103;&#109;ail.c&#111;m"],"Latitude":41.241453,"Longitude":-81.34594,"scrape_datetime":1665257704299,"scrape_domain":"thehumanbean.com","scrape_store_name":"The Human Bean"},{"Name":"OR &#8211; Albany, Hill St","Brand":"The Human Bean","Status":null,"Address":"952 Hill St.","State":"OR","Locality":null,"Zip":"97322","Country":"United States (US)","PhoneNumbers":["1-541-924-3831",""],"Website":"https:\/\/thehumanbean.com\/location\/human-bean-952-hill-st-albany-oregon\/","Emails":["re&#97;&#98;&#115;&#64;c&#111;m&#99;&#97;&#115;t.&#110;et"],"Latitude":44.6321759,"Longitude":-123.0925202,"scrape_datetime":1665257704299,"scrape_domain":"thehumanbean.com","scrape_store_name":"The Human Bean"},{"Name":"OR &#8211; Albany, Pacific Blvd","Brand":"The Human Bean","Status":null,"Address":"3080 Pacific Blvd SE","State":"OR","Locality":null,"Zip":"97321","Country":"United States (US)","PhoneNumbers":["1-541-926-2901",""],"Website":"https:\/\/thehumanbean.com\/location\/human-bean-3080-pacific-blvd-se\/","Emails":["&#114;ea&#98;s&#64;&#99;o&#109;c&#97;st.net"],"Latitude":44.6407058,"Longitude":-123.0674367,"scrape_datetime":1665257704299,"scrape_domain":"thehumanbean.com","scrape_store_name":"The Human Bean"},{"Name":"OR &#8211; Ashland, Hwy 99","Brand":"The Human Bean","Status":null,"Address":"1980 Hwy 99","State":"OR","Locality":null,"Zip":"97520","Country":"United States (US)","PhoneNumbers":["1-541-482-8064",""],"Website":"https:\/\/thehumanbean.com\/location\/human-bean-1980-hwy-99-ashland-oregon\/","Emails":["&#105;&#110;f&#111;&#64;t&#104;&#101;h&#117;m&#97;&#110;b&#101;an.&#99;o&#109;"],"Latitude":42.21929844,"Longitude":-122.7374847,"scrape_datetime":1665257704299,"scrape_domain":"thehumanbean.com","scrape_store_name":"The Human Bean"},{"Name":"OR &#8211; Bandon, S 10th St","Brand":"The Human Bean","Status":null,"Address":"65 S. 10th St.","State":"OR","Locality":null,"Zip":"97411","Country":"United States (US)","PhoneNumbers":["1-541-329-0162",""],"Website":"https:\/\/thehumanbean.com\/location\/human-bean-66-s-10-th-st-bandon-oregon\/","Emails":["&#109;r&#107;&#101;&#118;&#105;n&#109;ur&#114;&#97;&#121;&#64;&#97;ol.c&#111;&#109;"],"Latitude":43.127714,"Longitude":-124.39672,"scrape_datetime":1665257704299,"scrape_domain":"thehumanbean.com","scrape_store_name":"The Human Bean"},{"Name":"OR &#8211; Beaverton, SW Beaverton Hillsdale Hwy","Brand":"The Human Bean","Status":null,"Address":"8355 SW Beaverton Hillsdale Hwy","State":"OR","Locality":null,"Zip":"97225","Country":"United States (US)","PhoneNumbers":["1-503-203-1570",""],"Website":"https:\/\/thehumanbean.com\/location\/human-bean-8355-sw-beaverton-hillsdale-hwy-beaverton-oregon\/","Emails":["&#107;im&#64;&#116;he&#104;umanbea&#110;&#46;&#99;&#111;&#109;"],"Latitude":45.48675035,"Longitude":-122.7625257,"scrape_datetime":1665257704299,"scrape_domain":"thehumanbean.com","scrape_store_name":"The Human Bean"},{"Name":"OR &#8211; Beaverton, SW Tualatin Hwy","Brand":"The Human Bean","Status":null,"Address":"14435 SW Tualatin Highway","State":"OR","Locality":null,"Zip":"97005","Country":"United States (US)","PhoneNumbers":["1-503-747-3401",""],"Website":"https:\/\/thehumanbean.com\/location\/human-bean-14435-sw-tualatin-highway-oregon\/","Emails":["&#97;ly&#64;nw&#99;off&#101;e&#103;&#114;o&#117;&#112;.co&#109;"],"Latitude":45.48992742,"Longitude":-122.8258689,"scrape_datetime":1665257704299,"scrape_domain":"thehumanbean.com","scrape_store_name":"The Human Bean"},{"Name":"OR &#8211; Bend, 9th St NE","Brand":"The Human Bean","Status":null,"Address":"1041 9th St NE","State":"OR","Locality":null,"Zip":"97701","Country":"United States (US)","PhoneNumbers":["1-541-382-0659",""],"Website":"https:\/\/thehumanbean.com\/location\/human-bean-1041-9th-st-ne-bend-oregon\/","Emails":["t&#104;ehu&#109;an&#98;&#101;&#97;&#110;&#46;ben&#100;&#64;g&#109;&#97;il&#46;&#99;&#111;m"],"Latitude":44.06023478,"Longitude":-121.2930218,"scrape_datetime":1665257704299,"scrape_domain":"thehumanbean.com","scrape_store_name":"The Human Bean"},{"Name":"OR &#8211; Bend, NE Hwy 20","Brand":"The Human Bean","Status":null,"Address":"2220 North East Hwy 20","State":"OR","Locality":null,"Zip":"97701","Country":"United States (US)","PhoneNumbers":["1-541-323-6930",""],"Website":"https:\/\/thehumanbean.com\/location\/human-bean-2220-north-east-hwy-20-bend-oregon\/","Emails":["t&#104;&#101;&#104;u&#109;&#97;&#110;b&#101;&#97;&#110;&#46;be&#110;&#100;&#64;gm&#97;il&#46;co&#109;"],"Latitude":44.0550305,"Longitude":-121.2743,"scrape_datetime":1665257704299,"scrape_domain":"thehumanbean.com","scrape_store_name":"The Human Bean"},{"Name":"OR &#8211; Canby, SW 1st Ave","Brand":"The Human Bean","Status":null,"Address":"318 SW 1st Ave #1","State":"OR","Locality":null,"Zip":"97013","Country":"United States (US)","PhoneNumbers":["1-503-263-2326",""],"Website":"https:\/\/thehumanbean.com\/location\/human-bean-318-sw-1st-ave-1-canby-oregon\/","Emails":["k&#105;m&#64;the&#104;uma&#110;b&#101;an&#46;&#99;o&#109;"],"Latitude":45.26135377,"Longitude":-122.6953689,"scrape_datetime":1665257704299,"scrape_domain":"thehumanbean.com","scrape_store_name":"The Human Bean"},{"Name":"OR &#8211; Central Point, Biddle Rd","Brand":"The Human Bean","Status":null,"Address":"4601 Biddle Rd.","State":"OR","Locality":null,"Zip":"97502","Country":"United States (US)","PhoneNumbers":["1-541-664-2720",""],"Website":"https:\/\/thehumanbean.com\/location\/human-bean-536-e-pine-street-central-point-oregon\/","Emails":["&#116;&#97;m&#105;&#64;&#116;&#104;&#101;&#104;&#117;manb&#101;a&#110;.c&#111;&#109;"],"Latitude":42.3778156,"Longitude":-122.8886752,"scrape_datetime":1665257704299,"scrape_domain":"thehumanbean.com","scrape_store_name":"The Human Bean"},{"Name":"OR &#8211; Central Point, E Pine St","Brand":"The Human Bean","Status":null,"Address":"113 E Pine Street","State":"OR","Locality":null,"Zip":"97502","Country":"United States (US)","PhoneNumbers":["1-541-664-5692",""],"Website":"https:\/\/thehumanbean.com\/location\/human-bean-113-e-pine-street-central-point-oregon\/","Emails":["&#116;ami&#64;&#116;h&#101;h&#117;&#109;an&#98;ea&#110;.c&#111;m"],"Latitude":42.37471471,"Longitude":-122.9172903,"scrape_datetime":1665257704299,"scrape_domain":"thehumanbean.com","scrape_store_name":"The Human Bean"},{"Name":"OR &#8211; Clackamas, SE Elon St","Brand":"The Human Bean","Status":null,"Address":"9839 SE Elon St.","State":"OR","Locality":null,"Zip":"97015","Country":"United States (US)","PhoneNumbers":["1-503-303-4795",""],"Website":"https:\/\/thehumanbean.com\/location\/human-bean-9839-se-elon-st-clackamas-oregon\/","Emails":["&#97;&#108;y&#64;&#110;&#119;c&#111;f&#102;e&#101;group.c&#111;m"],"Latitude":45.40721825,"Longitude":-122.5618649,"scrape_datetime":1665257704299,"scrape_domain":"thehumanbean.com","scrape_store_name":"The Human Bean"},{"Name":"OR &#8211; Coos Bay, Hwy 101","Brand":"The Human Bean","Status":null,"Address":"62993 Hwy 101","State":"OR","Locality":null,"Zip":"97420","Country":"United States (US)","PhoneNumbers":["1-541-267-6724",""],"Website":"https:\/\/thehumanbean.com\/location\/human-bean-62993-hwy-101-coos-bay-oregon\/","Emails":["jsran&#100;&#108;&#101;&#64;&#99;h&#97;&#114;&#116;&#101;&#114;&#46;&#110;e&#116;"],"Latitude":43.356116,"Longitude":-124.2047829,"scrape_datetime":1665257704299,"scrape_domain":"thehumanbean.com","scrape_store_name":"The Human Bean"},{"Name":"OR &#8211; Cornelius, E Baseline St","Brand":"The Human Bean","Status":null,"Address":"2355 E Baseline St","State":"OR","Locality":null,"Zip":"97113","Country":"United States (US)","PhoneNumbers":["1-503-648-4881",""],"Website":"https:\/\/thehumanbean.com\/location\/human-bean-2355-e-baseline-st-cornelius-oregon\/","Emails":["kim&#64;t&#104;&#101;h&#117;ma&#110;b&#101;&#97;&#110;&#46;com"],"Latitude":45.51979364,"Longitude":-123.0427246,"scrape_datetime":1665257704299,"scrape_domain":"thehumanbean.com","scrape_store_name":"The Human Bean"},{"Name":"OR &#8211; Eugene, Chad Dr","Brand":"The Human Bean","Status":null,"Address":"2809 Chad Dr.","State":"OR","Locality":null,"Zip":"97408","Country":"United States (US)","PhoneNumbers":["1-541-515-6161",""],"Website":"https:\/\/thehumanbean.com\/location\/human-bean-2809-chad-dr-eugene-oregon\/","Emails":["b&#114;a&#110;&#100;&#121;&#64;&#116;e&#97;m&#106;&#99;k.co&#109;"],"Latitude":44.090349,"Longitude":-123.0668803,"scrape_datetime":1665257704299,"scrape_domain":"thehumanbean.com","scrape_store_name":"The Human Bean"},{"Name":"OR &#8211; Eugene, W 11th Ave","Brand":"The Human Bean","Status":null,"Address":"3645 W. 11th Ave","State":"OR","Locality":null,"Zip":"97402","Country":"United States (US)","PhoneNumbers":["1-541-246-8503",""],"Website":"https:\/\/thehumanbean.com\/location\/human-bean-3645-w-11-th-ave-eugene-oregon\/","Emails":["&#98;&#114;&#97;n&#100;y&#64;t&#101;&#97;mjc&#107;&#46;&#99;&#111;&#109;"],"Latitude":44.0483285,"Longitude":-123.1467276,"scrape_datetime":1665257704299,"scrape_domain":"thehumanbean.com","scrape_store_name":"The Human Bean"},{"Name":"OR &#8211; Eugene, W. 7th Ave.","Brand":"The Human Bean","Status":null,"Address":"1775 W 7th Avenue","State":"OR","Locality":null,"Zip":"97402","Country":"United States (US)","PhoneNumbers":["1-888-262-2215",""],"Website":"https:\/\/thehumanbean.com\/location\/the-human-bean-1775-w-7th-avenue-eugene-or\/","Emails":["&#108;&#97;&#117;&#114;e&#110;&#64;t&#101;a&#109;&#106;c&#107;.c&#111;m"],"Latitude":44.0521685,"Longitude":-123.1196719,"scrape_datetime":1665257704299,"scrape_domain":"thehumanbean.com","scrape_store_name":"The Human Bean"},{"Name":"OR &#8211; Florence, Hwy 101","Brand":"The Human Bean","Status":null,"Address":"Hwy 101","State":"OR","Locality":null,"Zip":"97439","Country":"United States (US)","PhoneNumbers":["1-888-262-2215",""],"Website":"https:\/\/thehumanbean.com\/location\/human-bean-florence-or-97439\/","Emails":["j&#115;ra&#110;d&#108;&#101;&#64;c&#104;art&#101;r.&#110;&#101;t"],"Latitude":43.9715395,"Longitude":-124.1050433,"scrape_datetime":1665257704299,"scrape_domain":"thehumanbean.com","scrape_store_name":"The Human Bean"},{"Name":"OR &#8211; Grants Pass, 6th St","Brand":"The Human Bean","Status":null,"Address":"1885 6th St.","State":"OR","Locality":null,"Zip":"97526","Country":"United States (US)","PhoneNumbers":["1-541-471-7199",""],"Website":"https:\/\/thehumanbean.com\/location\/human-bean-1885-6th-street-grants-pass-oregon\/","Emails":["&#100;an&#97;&#101;th&#111;&#109;as&#111;n&#64;&#103;mai&#108;.c&#111;m"],"Latitude":42.46039591,"Longitude":-123.3222592,"scrape_datetime":1665257704299,"scrape_domain":"thehumanbean.com","scrape_store_name":"The Human Bean"},{"Name":"OR &#8211; Grants Pass, Curtis Rd","Brand":"The Human Bean","Status":null,"Address":"109 Curtis Drive","State":"OR","Locality":null,"Zip":"97526","Country":"United States (US)","PhoneNumbers":["1-541-479-3979",""],"Website":"https:\/\/thehumanbean.com\/location\/human-bean-109-curtis-rd-grants-pass-oregon\/","Emails":["&#100;ana&#101;&#116;&#104;o&#109;a&#115;&#111;&#110;&#64;gm&#97;&#105;&#108;&#46;co&#109;"],"Latitude":42.408924,"Longitude":-123.3457634,"scrape_datetime":1665257704299,"scrape_domain":"thehumanbean.com","scrape_store_name":"The Human Bean"},{"Name":"OR &#8211; Grants Pass, NE F St","Brand":"The Human Bean","Status":null,"Address":"840 NE F Street","State":"OR","Locality":null,"Zip":"97526","Country":"United States (US)","PhoneNumbers":["1-888-262-2215",""],"Website":"https:\/\/thehumanbean.com\/location\/human-bean-840-ne-f-street-grants-pass-oregon\/","Emails":["&#100;&#97;&#110;ae&#116;&#104;&#111;m&#97;so&#110;&#64;&#103;mail&#46;&#99;o&#109;"],"Latitude":42.4386694,"Longitude":-123.3151036,"scrape_datetime":1665257704299,"scrape_domain":"thehumanbean.com","scrape_store_name":"The Human Bean"},{"Name":"OR &#8211; Grants Pass, SE 7th Street","Brand":"The Human Bean","Status":null,"Address":"700 SE 7th Street","State":"OR","Locality":null,"Zip":"97526","Country":"United States (US)","PhoneNumbers":["541-226-9390",""],"Website":"https:\/\/thehumanbean.com\/location\/the-human-bean-700-se-7th-st-grants-pass-or\/","Emails":["d&#97;n&#97;etho&#109;ason&#64;&#103;m&#97;i&#108;.&#99;o&#109;"],"Latitude":42.4350266,"Longitude":-123.3283432,"scrape_datetime":1665257704299,"scrape_domain":"thehumanbean.com","scrape_store_name":"The Human Bean"},{"Name":"OR &#8211; Hermiston, S. Hwy 395","Brand":"The Human Bean","Status":null,"Address":"205 S. Hwy 395","State":"OR","Locality":null,"Zip":"97838","Country":"United States (US)","PhoneNumbers":["1-888-262-2215",""],"Website":"https:\/\/thehumanbean.com\/location\/205-s-hwy-395-hermiston-or-97838\/","Emails":["me&#97;nt2&#98;&#99;of&#102;e&#101;&#64;&#103;&#109;&#97;&#105;&#108;&#46;&#99;om"],"Latitude":45.8393638,"Longitude":-119.2895109,"scrape_datetime":1665257704299,"scrape_domain":"thehumanbean.com","scrape_store_name":"The Human Bean"},{"Name":"OR &#8211; Hillsboro, SE Oak St","Brand":"The Human Bean","Status":null,"Address":"998 SE Oak St","State":"OR","Locality":null,"Zip":"97123","Country":"United States (US)","PhoneNumbers":["1-503-747-6731",""],"Website":"https:\/\/thehumanbean.com\/location\/human-bean-998-se-oak-st-hillsboro-oregon\/","Emails":["&#107;&#105;m&#64;&#116;h&#101;h&#117;m&#97;nb&#101;&#97;n&#46;&#99;o&#109;"],"Latitude":45.51831198,"Longitude":-122.9741721,"scrape_datetime":1665257704299,"scrape_domain":"thehumanbean.com","scrape_store_name":"The Human Bean"},{"Name":"OR &#8211; Keizer, River Road N","Brand":"The Human Bean","Status":null,"Address":"5007 River Rd. N.","State":"OR","Locality":null,"Zip":"97303","Country":"United States (US)","PhoneNumbers":["1-503-689-1781",""],"Website":"https:\/\/thehumanbean.com\/location\/human-bean-5007-river-rd-n-keizer-oregon\/","Emails":["b&#114;and&#121;&#64;&#116;&#101;&#97;&#109;j&#99;&#107;&#46;c&#111;&#109;"],"Latitude":44.9974558,"Longitude":-123.0269427,"scrape_datetime":1665257704299,"scrape_domain":"thehumanbean.com","scrape_store_name":"The Human Bean"},{"Name":"OR &#8211; Klamath Falls, S 6th St","Brand":"The Human Bean","Status":null,"Address":"4653 S 6 th St","State":"OR","Locality":null,"Zip":"97603","Country":"United States (US)","PhoneNumbers":["1-541-363-0141",""],"Website":"https:\/\/thehumanbean.com\/location\/klamath-falls-oregon-2\/","Emails":["d&#108;mbw&#105;&#108;&#107;&#64;c&#104;&#97;r&#116;&#101;r&#46;&#110;&#101;&#116;"],"Latitude":42.2068897,"Longitude":-121.7313496,"scrape_datetime":1665257704299,"scrape_domain":"thehumanbean.com","scrape_store_name":"The Human Bean"},{"Name":"OR &#8211; Klamath Falls, Washburn Way","Brand":"The Human Bean","Status":null,"Address":"2430 Washburn Way","State":"OR","Locality":null,"Zip":"97603","Country":"United States (US)","PhoneNumbers":["1-541-363-0142",""],"Website":"https:\/\/thehumanbean.com\/location\/klamath-falls-oregon\/","Emails":["&#100;l&#109;bw&#105;l&#107;&#64;&#99;h&#97;&#114;te&#114;&#46;n&#101;t"],"Latitude":42.20588463,"Longitude":-121.7574645,"scrape_datetime":1665257704299,"scrape_domain":"thehumanbean.com","scrape_store_name":"The Human Bean"},{"Name":"OR &#8211; Lebanon, S Main St","Brand":"The Human Bean","Status":null,"Address":"1507 S. Main St.","State":"OR","Locality":null,"Zip":"97355","Country":"United States (US)","PhoneNumbers":["1-541-405-4113",""],"Website":"https:\/\/thehumanbean.com\/location\/human-bean-1507-s-main-st-lebanon-oregon\/","Emails":["&#114;&#101;&#97;b&#115;&#64;co&#109;&#99;a&#115;&#116;.net"],"Latitude":44.5319122,"Longitude":-122.906779,"scrape_datetime":1665257704299,"scrape_domain":"thehumanbean.com","scrape_store_name":"The Human Bean"},{"Name":"OR &#8211; Lincoln City, NW Hwy 101","Brand":"The Human Bean","Status":null,"Address":"3565 NW Hwy 101","State":"OR","Locality":null,"Zip":"97367","Country":"United States (US)","PhoneNumbers":["1-541-614-1440",""],"Website":"https:\/\/thehumanbean.com\/location\/human-bean-3565-nw-hwy-101-lincoln-city-or\/","Emails":["&#98;ritt&#104;e&#105;ns&#57;2&#64;g&#109;a&#105;&#108;.co&#109;"],"Latitude":44.9916836,"Longitude":-124.0066443,"scrape_datetime":1665257704299,"scrape_domain":"thehumanbean.com","scrape_store_name":"The Human Bean"},{"Name":"OR &#8211; Madras, NE Plum St","Brand":"The Human Bean","Status":null,"Address":"40 NE Plum St.","State":"OR","Locality":null,"Zip":"97741","Country":"United States (US)","PhoneNumbers":["1-541-615-1662",""],"Website":"https:\/\/thehumanbean.com\/location\/human-bean-40-ne-plum-st-madras-oregon\/","Emails":["&#116;h&#101;h&#117;&#109;a&#110;b&#101;&#97;n.&#98;en&#100;&#64;&#103;&#109;a&#105;l.&#99;&#111;&#109;"],"Latitude":44.6421513,"Longitude":-121.1290312,"scrape_datetime":1665257704299,"scrape_domain":"thehumanbean.com","scrape_store_name":"The Human Bean"},{"Name":"OR &#8211; Medford, Biddle Rd","Brand":"The Human Bean","Status":null,"Address":"1598 Biddle Rd.","State":"OR","Locality":null,"Zip":"97504","Country":"United States (US)","PhoneNumbers":["1-541-779-9318",""],"Website":"https:\/\/thehumanbean.com\/location\/human-bean-1598-biddle-rd-medford-oregon\/","Emails":["&#105;&#110;&#102;o&#64;&#116;h&#101;humanbe&#97;n&#46;&#99;&#111;m"],"Latitude":42.34612716,"Longitude":-122.8736811,"scrape_datetime":1665257704299,"scrape_domain":"thehumanbean.com","scrape_store_name":"The Human Bean"},{"Name":"OR &#8211; Medford, E Barnett Rd","Brand":"The Human Bean","Status":null,"Address":"1831 E. Barnett","State":"OR","Locality":null,"Zip":"97504","Country":"United States (US)","PhoneNumbers":["1-541-282-1570",""],"Website":"https:\/\/thehumanbean.com\/location\/human-bean-1831-e-barnett-medford-oregon\/","Emails":["&#105;&#110;&#102;&#111;&#64;&#116;&#104;e&#104;&#117;m&#97;&#110;be&#97;n&#46;c&#111;&#109;"],"Latitude":42.3162325,"Longitude":-122.844847,"scrape_datetime":1665257704299,"scrape_domain":"thehumanbean.com","scrape_store_name":"The Human Bean"},{"Name":"OR &#8211; Medford, Rossanley Dr","Brand":"The Human Bean","Status":null,"Address":"559 Rossanley Dr.","State":"OR","Locality":null,"Zip":"97501","Country":"United States (US)","PhoneNumbers":["1-541-734-2326",""],"Website":"https:\/\/thehumanbean.com\/location\/human-bean-559-rossanley-dr-medford-oregon\/","Emails":["&#105;&#110;&#102;o&#64;t&#104;&#101;hu&#109;&#97;&#110;bean.&#99;&#111;m"],"Latitude":42.34019145,"Longitude":-122.8946328,"scrape_datetime":1665257704299,"scrape_domain":"thehumanbean.com","scrape_store_name":"The Human Bean"},{"Name":"OR &#8211; Medford, S Pacific Hwy","Brand":"The Human Bean","Status":null,"Address":"2337 S. Pacific Hwy","State":"OR","Locality":null,"Zip":"97501","Country":"United States (US)","PhoneNumbers":["1-541-245-6219",""],"Website":"https:\/\/thehumanbean.com\/location\/human-bean-2337-s-pacific-hwy-medford-oregon\/","Emails":["&#105;&#110;f&#111;&#64;t&#104;e&#104;&#117;&#109;&#97;nb&#101;a&#110;.c&#111;&#109;"],"Latitude":42.3039472,"Longitude":-122.8516093,"scrape_datetime":1665257704299,"scrape_domain":"thehumanbean.com","scrape_store_name":"The Human Bean"},{"Name":"OR &#8211; Medford, Stewart Ave","Brand":"The Human Bean","Status":null,"Address":"295 Stewart Ave.","State":"OR","Locality":null,"Zip":"97501","Country":"United States (US)","PhoneNumbers":["1-541-779-4215",""],"Website":"https:\/\/thehumanbean.com\/location\/human-bean-295-stewart-ave-medford-oregon\/","Emails":["i&#110;&#102;&#111;&#64;th&#101;&#104;u&#109;&#97;&#110;&#98;ea&#110;&#46;co&#109;"],"Latitude":42.31260964,"Longitude":-122.8670219,"scrape_datetime":1665257704299,"scrape_domain":"thehumanbean.com","scrape_store_name":"The Human Bean"},{"Name":"OR &#8211; Newberg, Villa Rd","Brand":"The Human Bean","Status":null,"Address":"206 Villa Rd","State":"OR","Locality":null,"Zip":"97132","Country":"United States (US)","PhoneNumbers":["1-503-487-6549",""],"Website":"https:\/\/thehumanbean.com\/location\/human-bean-206-villa-rd-newberg-oregon\/","Emails":["ki&#109;&#64;&#116;heh&#117;&#109;&#97;nb&#101;an&#46;&#99;&#111;m"],"Latitude":45.3019336,"Longitude":-122.9623362,"scrape_datetime":1665257704299,"scrape_domain":"thehumanbean.com","scrape_store_name":"The Human Bean"},{"Name":"OR &#8211; Newport, North Coast Hwy","Brand":"The Human Bean","Status":null,"Address":"601 North Coast Hwy","State":"OR","Locality":null,"Zip":"97365","Country":"United States (US)","PhoneNumbers":["1-541-272-5191",""],"Website":"https:\/\/thehumanbean.com\/location\/human-bean-601-north-coast-hwy-newport-oregon\/","Emails":["bri&#116;t&#104;&#101;&#105;n&#115;&#57;&#50;&#64;&#103;&#109;&#97;&#105;&#108;.com"],"Latitude":44.64065433,"Longitude":-124.0527235,"scrape_datetime":1665257704299,"scrape_domain":"thehumanbean.com","scrape_store_name":"The Human Bean"},{"Name":"OR &#8211; North Bend, Virginia Ave","Brand":"The Human Bean","Status":null,"Address":"1509 Virginia Ave.","State":"OR","Locality":null,"Zip":"97459","Country":"United States (US)","PhoneNumbers":["1-541-756-7984",""],"Website":"https:\/\/thehumanbean.com\/location\/human-bean-1509-virginia-ave-north-bend-oregon\/","Emails":["jsra&#110;d&#108;e&#64;c&#104;a&#114;&#116;er&#46;ne&#116;"],"Latitude":43.4059052,"Longitude":-124.2330301,"scrape_datetime":1665257704299,"scrape_domain":"thehumanbean.com","scrape_store_name":"The Human Bean"},{"Name":"OR &#8211; Philomath, Main St","Brand":"The Human Bean","Status":null,"Address":"1914 Main Street","State":"OR","Locality":null,"Zip":"97370","Country":"United States (US)","PhoneNumbers":["1-541-929-7662",""],"Website":"https:\/\/thehumanbean.com\/location\/human-bean-1914-main-street-philomath-oregon\/","Emails":["re&#97;bs&#64;&#99;&#111;&#109;ca&#115;t.n&#101;&#116;"],"Latitude":44.53959175,"Longitude":-123.3583115,"scrape_datetime":1665257704299,"scrape_domain":"thehumanbean.com","scrape_store_name":"The Human Bean"},{"Name":"OR &#8211; Portland, NE Sandy Blvd","Brand":"The Human Bean","Status":null,"Address":"4835 NE Sandy Blvd.","State":"OR","Locality":null,"Zip":"97213","Country":"United States (US)","PhoneNumbers":["1-971-254-8933",""],"Website":"https:\/\/thehumanbean.com\/location\/human-bean-4835-ne-sandy-blvd-portland-oregon\/","Emails":["&#97;l&#121;&#64;&#110;&#119;&#99;o&#102;&#102;ee&#103;roup&#46;c&#111;m"],"Latitude":45.53919114,"Longitude":-122.613357,"scrape_datetime":1665257704299,"scrape_domain":"thehumanbean.com","scrape_store_name":"The Human Bean"},{"Name":"OR &#8211; Roseburg, NW Stewart Pkwy","Brand":"The Human Bean","Status":null,"Address":"2288 NW Stewart Parkway","State":"OR","Locality":null,"Zip":"97471","Country":"United States (US)","PhoneNumbers":["1-541-673-5040",""],"Website":"https:\/\/thehumanbean.com\/location\/human-bean-2288-nw-stewart-parkway-roseburg-oregon\/","Emails":["d&#97;na&#101;&#116;hom&#97;&#115;&#111;n&#64;g&#109;ail&#46;co&#109;"],"Latitude":43.2366806,"Longitude":-123.3723356,"scrape_datetime":1665257704299,"scrape_domain":"thehumanbean.com","scrape_store_name":"The Human Bean"},{"Name":"OR &#8211; Roseburg, W Harvard Ave","Brand":"The Human Bean","Status":null,"Address":"1230 W. Harvard Ave.","State":"OR","Locality":null,"Zip":"97470","Country":"United States (US)","PhoneNumbers":["1-541-672-4559",""],"Website":"https:\/\/thehumanbean.com\/location\/human-bean-1230-w-harvard-ave-roseburg-oregon\/","Emails":["dan&#97;e&#116;h&#111;m&#97;&#115;on&#64;g&#109;&#97;i&#108;.com"],"Latitude":43.21449945,"Longitude":-123.3632272,"scrape_datetime":1665257704299,"scrape_domain":"thehumanbean.com","scrape_store_name":"The Human Bean"},{"Name":"OR &#8211; Salem, Commercial St","Brand":"The Human Bean","Status":null,"Address":"4651 Commercial St.","State":"OR","Locality":null,"Zip":"97302","Country":"United States (US)","PhoneNumbers":["1-503-391-7613",""],"Website":"https:\/\/thehumanbean.com\/location\/human-bean-4651-commercial-st-salem-oregon\/","Emails":["&#98;r&#97;&#110;dy&#64;teamj&#99;k.&#99;o&#109;"],"Latitude":44.88681927,"Longitude":-123.0334408,"scrape_datetime":1665257704299,"scrape_domain":"thehumanbean.com","scrape_store_name":"The Human Bean"},{"Name":"OR &#8211; Springfield, Main St","Brand":"The Human Bean","Status":null,"Address":"1375 Main St","State":"OR","Locality":null,"Zip":"97477","Country":"United States (US)","PhoneNumbers":["1-541-780-6856",""],"Website":"https:\/\/thehumanbean.com\/location\/human-bean-1375-main-street-springfield-oregon\/","Emails":["br&#97;&#110;dy&#64;team&#106;&#99;k.&#99;o&#109;"],"Latitude":44.0453504,"Longitude":-123.0060381,"scrape_datetime":1665257704299,"scrape_domain":"thehumanbean.com","scrape_store_name":"The Human Bean"},{"Name":"OR &#8211; Springfield, Q St","Brand":"The Human Bean","Status":null,"Address":"400 Q Street, Springfield","State":"OR","Locality":null,"Zip":"97477","Country":"United States (US)","PhoneNumbers":["1-541-357-3690",""],"Website":"https:\/\/thehumanbean.com\/location\/human-bean-400-q-street-springfield-oregon-97477\/","Emails":["&#98;&#114;&#97;n&#100;y&#64;tea&#109;&#106;&#99;k.&#99;o&#109;"],"Latitude":44.0622855,"Longitude":-123.0201079,"scrape_datetime":1665257704299,"scrape_domain":"thehumanbean.com","scrape_store_name":"The Human Bean"},{"Name":"OR &#8211; Warrenton, SE Discovery N","Brand":"The Human Bean","Status":null,"Address":"1526 SE Discovery Lane","State":"OR","Locality":null,"Zip":"97146","Country":"United States (US)","PhoneNumbers":["1-503-861-8621",""],"Website":"https:\/\/thehumanbean.com\/location\/human-bean-1526-se-discovery-lane-warrenton-oregon\/","Emails":["a&#108;&#105;ss&#97;&#116;rot&#116;e&#114;&#64;gma&#105;l.c&#111;m"],"Latitude":46.1473345,"Longitude":-123.915833,"scrape_datetime":1665257704299,"scrape_domain":"thehumanbean.com","scrape_store_name":"The Human Bean"},{"Name":"OR &#8211; White City, Leigh Way","Brand":"The Human Bean","Status":null,"Address":"2100 Leigh Way","State":"OR","Locality":null,"Zip":"97503","Country":"United States (US)","PhoneNumbers":["1-888-262-2215",""],"Website":"https:\/\/thehumanbean.com\/location\/white-city-oregon\/","Emails":["ke&#110;&#100;raw&#101;&#115;&#116;&#49;&#64;&#103;&#109;a&#105;&#108;&#46;com"],"Latitude":42.4241905,"Longitude":-122.8531394,"scrape_datetime":1665257704299,"scrape_domain":"thehumanbean.com","scrape_store_name":"The Human Bean"},{"Name":"OR &#8211; Wilsonville, SW 95th Ave","Brand":"The Human Bean","Status":null,"Address":"25250 SW 95th Ave.","State":"OR","Locality":null,"Zip":"97070","Country":"United States (US)","PhoneNumbers":["1-503-826-5170",""],"Website":"https:\/\/thehumanbean.com\/location\/human-bean-25250-sw-95th-ave-wilsonville-oregon\/","Emails":["aly&#64;n&#119;&#99;&#111;ffe&#101;gr&#111;&#117;&#112;&#46;com"],"Latitude":45.33742411,"Longitude":-122.7728502,"scrape_datetime":1665257704299,"scrape_domain":"thehumanbean.com","scrape_store_name":"The Human Bean"},{"Name":"SC &#8211; Columbia, Summit Parkway","Brand":"The Human Bean","Status":null,"Address":"1402 Summit Parkway","State":"SC","Locality":null,"Zip":"29229","Country":"United States (US)","PhoneNumbers":["1-980-298-0560",""],"Website":"https:\/\/thehumanbean.com\/location\/the-human-bean-4760-hardscrabble-rd-columbia-sc\/","Emails":["g&#97;ry&#64;ca&#112;&#101;&#97;&#109;&#46;c&#111;&#109;"],"Latitude":34.1587178,"Longitude":-80.9091792,"scrape_datetime":1665257704299,"scrape_domain":"thehumanbean.com","scrape_store_name":"The Human Bean"},{"Name":"SC &#8211; Irmo, Broad River Rd","Brand":"The Human Bean","Status":null,"Address":"11115 Broad River Rd.","State":"SC","Locality":null,"Zip":"29063","Country":"United States (US)","PhoneNumbers":["1-803-749-6600",""],"Website":"https:\/\/thehumanbean.com\/location\/the-human-bean-11107-broad-river-rd-irmo-sc\/","Emails":["&#103;&#97;ry&#64;&#67;ap&#101;am&#46;&#99;om"],"Latitude":34.149581,"Longitude":-81.240406,"scrape_datetime":1665257704299,"scrape_domain":"thehumanbean.com","scrape_store_name":"The Human Bean"},{"Name":"SC &#8211; South Congaree, Main St","Brand":"The Human Bean","Status":null,"Address":"669 Main St.","State":"SC","Locality":null,"Zip":"29170","Country":"United States (US)","PhoneNumbers":["1-803-888-6058",""],"Website":"https:\/\/thehumanbean.com\/location\/the-human-bean-669-main-st-south-congaree-sc\/","Emails":["gary&#64;c&#97;&#112;e&#97;&#109;.&#99;om"],"Latitude":33.9156512,"Longitude":-81.1326531,"scrape_datetime":1665257704299,"scrape_domain":"thehumanbean.com","scrape_store_name":"The Human Bean"},{"Name":"The Human Bean Coffee Truck Northern CO","Brand":"The Human Bean","Status":null,"Address":"951 W. Plum St.","State":"Th","Locality":null,"Zip":"80521","Country":"United States (US)","PhoneNumbers":["Booking Information Below",""],"Website":"https:\/\/thehumanbean.com\/location\/human-bean-coffee-truck-northern-colorado\/","Emails":["j&#101;&#110;a&#101;&#64;&#104;&#117;&#109;a&#110;&#98;e&#97;nnor&#116;h&#101;&#114;ncol&#111;&#114;ad&#111;.&#99;&#111;m"],"Latitude":40.57477648,"Longitude":-105.0956347,"scrape_datetime":1665257704299,"scrape_domain":"thehumanbean.com","scrape_store_name":"The Human Bean"},{"Name":"TX &#8211; Austin, Wells Branch Parkway","Brand":"The Human Bean","Status":null,"Address":"1721 Wells Branch Parkway","State":"TX","Locality":null,"Zip":"78728","Country":"United States (US)","PhoneNumbers":["1-888-262-2215",""],"Website":"https:\/\/thehumanbean.com\/location\/1721-wells-branch-parkway-austin-tx\/","Emails":["&#84;&#104;&#101;&#66;&#101;&#97;n&#84;&#101;am&#65;TX&#64;g&#109;a&#105;&#108;.&#99;&#111;m"],"Latitude":30.4382061,"Longitude":-97.6718096,"scrape_datetime":1665257704299,"scrape_domain":"thehumanbean.com","scrape_store_name":"The Human Bean"},{"Name":"TX &#8211; Brownsville, E Alton Gloor Blvd","Brand":"The Human Bean","Status":null,"Address":"447 East Alton Gloor Blvd.","State":"TX","Locality":null,"Zip":"78521","Country":"United States (US)","PhoneNumbers":["1-956-801-2259",""],"Website":"https:\/\/thehumanbean.com\/location\/the-human-bean-425-alton-gloor-blvd-brownsville-tx\/","Emails":["man&#111;&#116;&#101;x&#49;0&#49;5&#64;y&#97;h&#111;o&#46;&#99;&#111;m"],"Latitude":25.9806879,"Longitude":-97.5101691,"scrape_datetime":1665257704299,"scrape_domain":"thehumanbean.com","scrape_store_name":"The Human Bean"},{"Name":"TX &#8211; Carrollton, Midway Rd","Brand":"The Human Bean","Status":null,"Address":"2661 Midway Rd, Suite 300","State":"TX","Locality":null,"Zip":"75006","Country":"United States (US)","PhoneNumbers":["1-972-373-4431",""],"Website":"https:\/\/thehumanbean.com\/location\/human-bean-2661-midway-road-suite-300-carrollton-tx-75006\/","Emails":["p&#114;&#110;&#99;o&#102;f&#101;e&#64;&#97;ol.&#99;&#111;m"],"Latitude":32.985462,"Longitude":-96.843894,"scrape_datetime":1665257704299,"scrape_domain":"thehumanbean.com","scrape_store_name":"The Human Bean"},{"Name":"TX &#8211; Georgetown, Williams Dr.","Brand":"The Human Bean","Status":null,"Address":"3117 Williams Drive","State":"TX","Locality":null,"Zip":"78628","Country":"United States (US)","PhoneNumbers":["1-888-262-2215",""],"Website":"https:\/\/thehumanbean.com\/location\/the-human-bean-3117-williams-drive-georgetown-tx\/","Emails":["cd&#106;ohs&#116;&#64;g&#109;ail&#46;&#99;&#111;m"],"Latitude":30.664574,"Longitude":-97.6929365,"scrape_datetime":1665257704299,"scrape_domain":"thehumanbean.com","scrape_store_name":"The Human Bean"},{"Name":"TX &#8211; Lewisville, W FM","Brand":"The Human Bean","Status":null,"Address":"1001 W. Round Grove Rd.","State":"TX","Locality":null,"Zip":"75067","Country":"United States (US)","PhoneNumbers":["+1 469-630-0223",""],"Website":"https:\/\/thehumanbean.com\/location\/the-human-bean-1001-fm-3040-lewisville-tx\/","Emails":["&#98;&#105;&#108;&#108;&#46;&#119;&#97;lt&#111;&#110;&#64;&#104;&#117;&#109;&#97;&#110;&#98;&#101;&#97;&#110;&#45;&#110;&#116;&#120;&#46;&#99;om"],"Latitude":33.00647062,"Longitude":-97.01466281,"scrape_datetime":1665257704299,"scrape_domain":"thehumanbean.com","scrape_store_name":"The Human Bean"},{"Name":"TX &#8211; McAllen, E. Nolana Ave.","Brand":"The Human Bean","Status":null,"Address":"1124 E. Nolana Ave.","State":"TX","Locality":null,"Zip":"78504","Country":"United States (US)","PhoneNumbers":["1-888-262-2215",""],"Website":"https:\/\/thehumanbean.com\/location\/the-human-bean-1124-e-nolana-avenue-mcallen-tx\/","Emails":["&#111;&#112;c&#118;azq&#117;&#101;z&#64;&#104;&#111;&#116;mail.c&#111;&#109;"],"Latitude":26.235875,"Longitude":-98.203469,"scrape_datetime":1665257704299,"scrape_domain":"thehumanbean.com","scrape_store_name":"The Human Bean"},{"Name":"TX &#8211; Midland, Big Spring St","Brand":"The Human Bean","Status":null,"Address":"2007 North Big Spring Street","State":"TX","Locality":null,"Zip":"79707","Country":"United States (US)","PhoneNumbers":["1-432-262-0280",""],"Website":"https:\/\/thehumanbean.com\/location\/2007-north-big-spring-street-midland-tx-the-human-bean\/","Emails":["c&#97;r&#109;enhbw&#116;&#120;&#64;&#103;m&#97;il&#46;com"],"Latitude":32.0174417,"Longitude":-102.0800183,"scrape_datetime":1665257704299,"scrape_domain":"thehumanbean.com","scrape_store_name":"The Human Bean"},{"Name":"TX &#8211; New Braunfels, 1293 FM 306","Brand":"The Human Bean","Status":null,"Address":"1293 FM 306","State":"TX","Locality":null,"Zip":"78130","Country":"United States (US)","PhoneNumbers":["1-888-262-2215",""],"Website":"https:\/\/thehumanbean.com\/location\/the-human-bean-1293-fm-306-new-braunfels-tx\/","Emails":["coffee&#64;&#102;&#105;s&#99;her&#115;&#109;k&#116;.&#99;om"],"Latitude":29.7435096,"Longitude":-98.0973055,"scrape_datetime":1665257704299,"scrape_domain":"thehumanbean.com","scrape_store_name":"The Human Bean"},{"Name":"TX &#8211; Odessa, E University Blvd","Brand":"The Human Bean","Status":null,"Address":"4950 A East University Blvd.","State":"TX","Locality":null,"Zip":"79762","Country":"United States (US)","PhoneNumbers":["1-432-276-5566",""],"Website":"https:\/\/thehumanbean.com\/location\/human-bean-4950-e-university-blvd-odessa-texas\/","Emails":["&#99;ar&#109;en&#104;&#98;w&#116;&#120;&#64;g&#109;ai&#108;&#46;c&#111;&#109;"],"Latitude":31.8813386,"Longitude":-102.3194232,"scrape_datetime":1665257704299,"scrape_domain":"thehumanbean.com","scrape_store_name":"The Human Bean"},{"Name":"TX &#8211; Odessa, FM 1936","Brand":"The Human Bean","Status":null,"Address":"2425 N FM 1936","State":"TX","Locality":null,"Zip":"79763","Country":"United States (US)","PhoneNumbers":["1-432-272-6131",""],"Website":"https:\/\/thehumanbean.com\/location\/the-human-bean-2611-fm-1926-odessa-tx\/","Emails":["ca&#114;m&#101;nhb&#119;&#116;x&#64;gma&#105;l.co&#109;"],"Latitude":31.8483862,"Longitude":-102.4461248,"scrape_datetime":1665257704299,"scrape_domain":"thehumanbean.com","scrape_store_name":"The Human Bean"},{"Name":"TX &#8211; Pflugerville, Rex Kerwin Ct","Brand":"The Human Bean","Status":null,"Address":"105 Rex Kerwin Ct","State":"TX","Locality":null,"Zip":"78660","Country":"United States (US)","PhoneNumbers":["1-512-595-0012",""],"Website":"https:\/\/thehumanbean.com\/location\/human-bean-101-rex-kerwin-court-pflugerville-texas-78660\/","Emails":["&#87;hi&#116;&#110;&#101;ying&#101;&#114;so&#108;&#108;726&#64;g&#109;&#97;&#105;l&#46;c&#111;m"],"Latitude":30.4440953,"Longitude":-97.628148,"scrape_datetime":1665257704299,"scrape_domain":"thehumanbean.com","scrape_store_name":"The Human Bean"},{"Name":"TX &#8211; San Antonio, Bulverde Rd.","Brand":"The Human Bean","Status":null,"Address":"25510 Bulverde Rd.","State":"TX","Locality":null,"Zip":"78261","Country":"United States (US)","PhoneNumbers":["830-714-4440",""],"Website":"https:\/\/thehumanbean.com\/location\/the-human-bean-25510-bulverde-rd-san-antonio-tx\/","Emails":["&#99;&#111;f&#102;&#101;&#101;&#64;f&#105;&#115;c&#104;&#101;&#114;&#115;&#109;kt.co&#109;"],"Latitude":29.680794,"Longitude":-98.4402098,"scrape_datetime":1665257704299,"scrape_domain":"thehumanbean.com","scrape_store_name":"The Human Bean"},{"Name":"TX &#8211; San Antonio, FM 78","Brand":"The Human Bean","Status":null,"Address":"7224 FM 78","State":"TX","Locality":null,"Zip":"78244","Country":"United States (US)","PhoneNumbers":["",""],"Website":"https:\/\/thehumanbean.com\/location\/tx-san-antonio-fm-78\/","Emails":["c&#97;r&#108;o&#115;&#100;&#108;&#114;&#99;pa&#64;g&#109;&#97;i&#108;&#46;com"],"Latitude":29.4851895,"Longitude":-98.3459658,"scrape_datetime":1665257704299,"scrape_domain":"thehumanbean.com","scrape_store_name":"The Human Bean"},{"Name":"TX &#8211; San Antonio, Marbach Rd.","Brand":"The Human Bean","Status":null,"Address":"9642 Marbach Road.","State":"TX","Locality":null,"Zip":"78245","Country":"United States (US)","PhoneNumbers":["1-888-262-2215",""],"Website":"https:\/\/thehumanbean.com\/location\/the-human-bean-9642-marbach-road-san-antonio-tx\/","Emails":["&#106;ake&#64;&#115;&#104;&#111;rtsto&#112;&#109;&#97;&#114;k&#101;t&#115;.com"],"Latitude":29.4171259,"Longitude":-98.6759128,"scrape_datetime":1665257704299,"scrape_domain":"thehumanbean.com","scrape_store_name":"The Human Bean"},{"Name":"VA &#8211; Sterling, Railcar Dr.","Brand":"The Human Bean","Status":null,"Address":"22074 Railcar Dr.","State":"VA","Locality":null,"Zip":"20164","Country":"United States (US)","PhoneNumbers":["1-888-262-2215",""],"Website":"https:\/\/thehumanbean.com\/location\/the-human-bean-22074-railcar-dr-sterling-va\/","Emails":["phi&#108;&#115;&#97;rt&#111;&#114;i&#64;h&#111;t&#109;a&#105;&#108;&#46;&#99;&#111;m"],"Latitude":39.0052452,"Longitude":-77.4302852,"scrape_datetime":1665257704299,"scrape_domain":"thehumanbean.com","scrape_store_name":"The Human Bean"},{"Name":"WA &#8211; Kennewick, W Clearwater Ave","Brand":"The Human Bean","Status":null,"Address":"4305 W. Clearwater Ave.","State":"WA","Locality":null,"Zip":"99336","Country":"United States (US)","PhoneNumbers":["1-509-579-0518",""],"Website":"https:\/\/thehumanbean.com\/location\/the-human-bean-4305-w-clear-water-kennewick-wa\/","Emails":["&#104;&#117;&#109;&#97;&#110;be&#97;ntc&#64;g&#109;&#97;il.c&#111;&#109;"],"Latitude":46.2120057,"Longitude":-119.178708,"scrape_datetime":1665257704299,"scrape_domain":"thehumanbean.com","scrape_store_name":"The Human Bean"},{"Name":"WA &#8211; Vancouver, NE 134th St.","Brand":"The Human Bean","Status":null,"Address":"2423 NE 134th St.","State":"WA","Locality":null,"Zip":"98656","Country":"United States (US)","PhoneNumbers":["1-888-262-2215",""],"Website":"https:\/\/thehumanbean.com\/location\/the-human-bean-2423-ne-134th-st-vancouver-wa\/","Emails":["bri&#97;&#110;&#64;ba&#110;&#100;&#116;coff&#101;e&#46;&#99;&#111;m"],"Latitude":45.7177292,"Longitude":-122.6456516,"scrape_datetime":1665257704299,"scrape_domain":"thehumanbean.com","scrape_store_name":"The Human Bean"},{"Name":"WA &#8211; Vancouver, NE 23rd St","Brand":"The Human Bean","Status":null,"Address":"16205 NE 23rd Street,","State":"WA","Locality":null,"Zip":"98684","Country":"United States (US)","PhoneNumbers":["1-360-258-1073",""],"Website":"https:\/\/thehumanbean.com\/location\/human-bean-16205-ne-23rd-street-vancouver-washington\/","Emails":["b&#114;&#105;&#97;&#110;&#64;bandt&#99;offee.co&#109;"],"Latitude":45.63923626,"Longitude":-122.5057258,"scrape_datetime":1665257704299,"scrape_domain":"thehumanbean.com","scrape_store_name":"The Human Bean"},{"Name":"WA &#8211; Vancouver, NE Fourth Plain Blvd","Brand":"The Human Bean","Status":null,"Address":"15630 NE Fourth Plain Blvd","State":"WA","Locality":null,"Zip":"98682","Country":"United States (US)","PhoneNumbers":["1-360-828-1769",""],"Website":"https:\/\/thehumanbean.com\/location\/human-bean-15630-ne-fourth-plain-blvd-vancouver-wa-98682\/","Emails":["b&#114;&#105;&#97;n&#64;&#98;a&#110;d&#116;&#99;&#111;&#102;fe&#101;&#46;&#99;om"],"Latitude":45.672523,"Longitude":-122.512811,"scrape_datetime":1665257704299,"scrape_domain":"thehumanbean.com","scrape_store_name":"The Human Bean"},{"Name":"WA &#8211; Walla Walla, E Whitman Dr","Brand":"The Human Bean","Status":null,"Address":"1195 E. Whitman Dr.","State":"WA","Locality":null,"Zip":"98902","Country":"United States (US)","PhoneNumbers":["1-509-204-3309",""],"Website":"https:\/\/thehumanbean.com\/location\/human-bean-walla-walla-wa-99362\/","Emails":["&#104;uma&#110;&#98;ea&#110;&#119;w&#118;&#97;&#108;le&#121;&#64;&#103;m&#97;i&#108;&#46;&#99;&#111;&#109;"],"Latitude":46.05054244,"Longitude":-118.3701753,"scrape_datetime":1665257704299,"scrape_domain":"thehumanbean.com","scrape_store_name":"The Human Bean"},{"Name":"WA &#8211; Washougal, E St","Brand":"The Human Bean","Status":null,"Address":"1500 E Street","State":"WA","Locality":null,"Zip":"98671","Country":"United States (US)","PhoneNumbers":["1-888-262-2215",""],"Website":"https:\/\/thehumanbean.com\/location\/the-human-bean-1500-e-street-washougal-wa\/","Emails":["&#100;&#101;&#114;i&#107;&#102;&#111;rd&#64;gmail.co&#109;"],"Latitude":45.5808923,"Longitude":-122.3556023,"scrape_datetime":1665257704299,"scrape_domain":"thehumanbean.com","scrape_store_name":"The Human Bean"},{"Name":"WA &#8211; Yakima, N 56th Ave","Brand":"The Human Bean","Status":null,"Address":"115 N. 56th Avenue, Yakima","State":"WA","Locality":null,"Zip":"98902","Country":"United States (US)","PhoneNumbers":["1-509-902-1929",""],"Website":"https:\/\/thehumanbean.com\/location\/human-bean-115-56th-avenue-yakima-washington-98902\/","Emails":["&#116;h&#101;hu&#109;&#97;&#110;&#98;eany&#97;&#107;&#105;&#109;&#97;&#64;&#103;m&#97;i&#108;.co&#109;"],"Latitude":46.5995846,"Longitude":-120.5827851,"scrape_datetime":1665257704299,"scrape_domain":"thehumanbean.com","scrape_store_name":"The Human Bean"},{"Name":"WV &#8211; Huntington, US Rt 60","Brand":"The Human Bean","Status":null,"Address":"5634 Route 60","State":"WV","Locality":null,"Zip":"25705","Country":"United States (US)","PhoneNumbers":["1-681-888-5433",""],"Website":"https:\/\/thehumanbean.com\/location\/the-human-bean-pea-ridge-plaza-us-route-60-barboursville-wv\/","Emails":["&#109;&#99;ha&#112;202&#48;&#64;&#97;ol.&#99;&#111;m"],"Latitude":38.41041868,"Longitude":-82.32584934,"scrape_datetime":1665257704299,"scrape_domain":"thehumanbean.com","scrape_store_name":"The Human Bean"},{"Name":"WY &#8211; Cheyenne, E Lincolnway","Brand":"The Human Bean","Status":null,"Address":"2211 E. Lincolnway","State":"WY","Locality":null,"Zip":"82001","Country":"United States (US)","PhoneNumbers":["307-369-2636",""],"Website":"https:\/\/thehumanbean.com\/location\/the-human-bean-2211-e-lincolnway-cheyenne-wy\/","Emails":["ma&#110;&#110;&#100;a&#110;ica&#64;gm&#97;&#105;&#108;.c&#111;m"],"Latitude":41.1384307,"Longitude":-104.790761,"scrape_datetime":1665257704299,"scrape_domain":"thehumanbean.com","scrape_store_name":"The Human Bean"}]